[{"nome":"Palmeiras do Tocantins","uf":"TO","lon":-47.546429,"lat":-6.616584},{"nome":"Barro Preto","uf":"BA","lon":-39.476029,"lat":-14.794773},{"nome":"Fernando de Noronha","uf":"PE","lon":-32.410733,"lat":-3.839601},{"nome":"Campo de Santana","uf":"PB","lon":-35.636707,"lat":-6.487585},{"nome":"Pracuúba","uf":"AP","lon":-50.789248,"lat":1.745427},{"nome":"Amapá","uf":"AP","lon":-50.795653,"lat":2.052669},{"nome":"Bujari","uf":"AC","lon":-67.955029,"lat":-9.815277},{"nome":"Plácido de Castro","uf":"AC","lon":-67.137133,"lat":-10.280640},{"nome":"Tarauacá","uf":"AC","lon":-70.772154,"lat":-8.156975},{"nome":"Feijó","uf":"AC","lon":-70.350973,"lat":-8.170536},{"nome":"Caracaraí","uf":"RR","lon":-61.130378,"lat":1.827659},{"nome":"Iracema","uf":"RR","lon":-61.041546,"lat":2.183046},{"nome":"Mucajaí","uf":"RR","lon":-60.909619,"lat":2.439982},{"nome":"Alto Alegre","uf":"RR","lon":-61.307167,"lat":2.988580},{"nome":"Amajari","uf":"RR","lon":-61.369245,"lat":3.645714},{"nome":"Rorainópolis","uf":"RR","lon":-60.438923,"lat":0.939956},{"nome":"São Luiz","uf":"RR","lon":-60.041894,"lat":1.010193},{"nome":"São João da Baliza","uf":"RR","lon":-59.913293,"lat":0.951659},{"nome":"Caroebe","uf":"RR","lon":-59.695886,"lat":0.884203},{"nome":"Cantá","uf":"RR","lon":-60.605827,"lat":2.609940},{"nome":"Bonfim","uf":"RR","lon":-59.833300,"lat":3.361614},{"nome":"Normandia","uf":"RR","lon":-59.620402,"lat":3.885305},{"nome":"Pacaraima","uf":"RR","lon":-61.147695,"lat":4.479895},{"nome":"Uiramutã","uf":"RR","lon":-60.181464,"lat":4.603144},{"nome":"Pedra Branca do Amapari","uf":"AP","lon":-51.950306,"lat":0.777424},{"nome":"Serra do Navio","uf":"AP","lon":-52.003636,"lat":0.901357},{"nome":"Porto Grande","uf":"AP","lon":-51.415499,"lat":0.712430},{"nome":"Ferreira Gomes","uf":"AP","lon":-51.179523,"lat":0.857256},{"nome":"Itaubal","uf":"AP","lon":-50.670828,"lat":0.596137},{"nome":"Cutias","uf":"AP","lon":-50.799169,"lat":0.987565},{"nome":"Tartarugalzinho","uf":"AP","lon":-50.908740,"lat":1.506519},{"nome":"Oiapoque","uf":"AP","lon":-51.833123,"lat":3.840740},{"nome":"Calçoene","uf":"AP","lon":-50.951233,"lat":2.504747},{"nome":"Marechal Thaumaturgo","uf":"AC","lon":-72.799704,"lat":-8.938983},{"nome":"Jordão","uf":"AC","lon":-71.897391,"lat":-9.430912},{"nome":"Assis Brasil","uf":"AC","lon":-69.573794,"lat":-10.929765},{"nome":"Santa Rosa do Purus","uf":"AC","lon":-70.490250,"lat":-9.446515},{"nome":"Manoel Urbano","uf":"AC","lon":-69.267862,"lat":-8.832911},{"nome":"Epitaciolândia","uf":"AC","lon":-68.734109,"lat":-11.018771},{"nome":"Brasiléia","uf":"AC","lon":-68.749696,"lat":-10.994994},{"nome":"Xapuri","uf":"AC","lon":-68.496857,"lat":-10.651598},{"nome":"Capixaba","uf":"AC","lon":-67.686006,"lat":-10.566031},{"nome":"Sena Madureira","uf":"AC","lon":-68.671278,"lat":-9.063499},{"nome":"Senador Guiomard","uf":"AC","lon":-67.736185,"lat":-10.149686},{"nome":"Envira","uf":"AM","lon":-70.028143,"lat":-7.437889},{"nome":"Porto Acre","uf":"AC","lon":-67.547815,"lat":-9.581378},{"nome":"Boca do Acre","uf":"AM","lon":-67.391926,"lat":-8.742322},{"nome":"Mâncio Lima","uf":"AC","lon":-72.899708,"lat":-7.616575},{"nome":"Porto Walter","uf":"AC","lon":-72.753747,"lat":-8.263233},{"nome":"Rodrigues Alves","uf":"AC","lon":-72.661015,"lat":-7.738638},{"nome":"Cruzeiro do Sul","uf":"AC","lon":-72.675582,"lat":-7.627625},{"nome":"Guajará","uf":"AM","lon":-72.590713,"lat":-7.537971},{"nome":"Ipixuna","uf":"AM","lon":-71.693426,"lat":-7.047909},{"nome":"Eirunepé","uf":"AM","lon":-69.866160,"lat":-6.656767},{"nome":"Amaturá","uf":"AM","lon":-68.200456,"lat":-3.374547},{"nome":"Maçambara","uf":"RS","lon":-56.067444,"lat":-29.144485},{"nome":"São Borja","uf":"RS","lon":-56.003603,"lat":-28.657828},{"nome":"Garruchos","uf":"RS","lon":-55.638284,"lat":-28.194414},{"nome":"Herval","uf":"RS","lon":-53.394362,"lat":-32.023985},{"nome":"Arroio Grande","uf":"RS","lon":-53.086155,"lat":-32.232657},{"nome":"Dom Feliciano","uf":"RS","lon":-52.102645,"lat":-30.700354},{"nome":"Chuvisca","uf":"RS","lon":-51.973659,"lat":-30.750410},{"nome":"Atalaia do Norte","uf":"AM","lon":-70.196700,"lat":-4.370551},{"nome":"Benjamin Constant","uf":"AM","lon":-70.034157,"lat":-4.377680},{"nome":"Tabatinga","uf":"AM","lon":-69.938273,"lat":-4.241597},{"nome":"Itamarati","uf":"AM","lon":-68.260027,"lat":-6.424591},{"nome":"São Paulo de Olivença","uf":"AM","lon":-68.964581,"lat":-3.472919},{"nome":"Santo Antônio do Içá","uf":"AM","lon":-67.946279,"lat":-3.095443},{"nome":"Tonantins","uf":"AM","lon":-67.791904,"lat":-2.865825},{"nome":"Chuí","uf":"RS","lon":-53.459369,"lat":-33.686630},{"nome":"Barra do Quaraí","uf":"RS","lon":-57.549722,"lat":-30.202859},{"nome":"Uruguaiana","uf":"RS","lon":-57.085287,"lat":-29.761436},{"nome":"Quaraí","uf":"RS","lon":-56.448254,"lat":-30.384033},{"nome":"Alegrete","uf":"RS","lon":-55.794862,"lat":-29.790166},{"nome":"Sant' Ana do Livramento","uf":"RS","lon":-55.531467,"lat":-30.887720},{"nome":"Dom Pedrito","uf":"RS","lon":-54.669360,"lat":-30.975590},{"nome":"Manoel Viana","uf":"RS","lon":-55.484112,"lat":-29.585935},{"nome":"São Francisco de Assis","uf":"RS","lon":-55.125310,"lat":-29.554689},{"nome":"Rosário do Sul","uf":"RS","lon":-54.922106,"lat":-30.251483},{"nome":"Cacequi","uf":"RS","lon":-54.821998,"lat":-29.888295},{"nome":"Nova Esperança do Sul","uf":"RS","lon":-54.829302,"lat":-29.406643},{"nome":"São Vicente do Sul","uf":"RS","lon":-54.682643,"lat":-29.688161},{"nome":"Jaguari","uf":"RS","lon":-54.702993,"lat":-29.493559},{"nome":"Itaqui","uf":"RS","lon":-56.551478,"lat":-29.131051},{"nome":"Pinheiro Machado","uf":"RS","lon":-53.379789,"lat":-31.579440},{"nome":"Pedro Osório","uf":"RS","lon":-52.818389,"lat":-31.864243},{"nome":"Cerrito","uf":"RS","lon":-52.800442,"lat":-31.841917},{"nome":"Capão do Leão","uf":"RS","lon":-52.488879,"lat":-31.756460},{"nome":"Morro Redondo","uf":"RS","lon":-52.626064,"lat":-31.588737},{"nome":"Bagé","uf":"RS","lon":-54.099920,"lat":-31.329650},{"nome":"Hulha Negra","uf":"RS","lon":-53.866702,"lat":-31.406721},{"nome":"Unistalda","uf":"RS","lon":-55.151731,"lat":-29.039953},{"nome":"Itacurubi","uf":"RS","lon":-55.244670,"lat":-28.791281},{"nome":"Santo Antônio das Missões","uf":"RS","lon":-55.225077,"lat":-28.513977},{"nome":"Santiago","uf":"RS","lon":-54.866624,"lat":-29.189675},{"nome":"Bossoroca","uf":"RS","lon":-54.903507,"lat":-28.729089},{"nome":"São Luiz Gonzaga","uf":"RS","lon":-54.955942,"lat":-28.412032},{"nome":"São Miguel das Missões","uf":"RS","lon":-54.555879,"lat":-28.556044},{"nome":"São Nicolau","uf":"RS","lon":-55.265441,"lat":-28.183365},{"nome":"Dezesseis de Novembro","uf":"RS","lon":-55.061709,"lat":-28.219036},{"nome":"Pirapó","uf":"RS","lon":-55.200130,"lat":-28.043888},{"nome":"Porto Xavier","uf":"RS","lon":-55.137910,"lat":-27.908182},{"nome":"Roque Gonzales","uf":"RS","lon":-55.026609,"lat":-28.129681},{"nome":"São Pedro do Butiá","uf":"RS","lon":-54.892603,"lat":-28.124250},{"nome":"Salvador das Missões","uf":"RS","lon":-54.837318,"lat":-28.123337},{"nome":"São Paulo das Missões","uf":"RS","lon":-54.940352,"lat":-28.019546},{"nome":"Porto Lucena","uf":"RS","lon":-55.010028,"lat":-27.856880},{"nome":"Campina das Missões","uf":"RS","lon":-54.841648,"lat":-27.988833},{"nome":"Sério","uf":"RS","lon":-52.268500,"lat":-29.390428},{"nome":"Mato Leitão","uf":"RS","lon":-52.127760,"lat":-29.528474},{"nome":"Santa Clara do Sul","uf":"RS","lon":-52.084260,"lat":-29.474740},{"nome":"Cruzeiro do Sul","uf":"RS","lon":-51.992778,"lat":-29.514835},{"nome":"Bom Retiro do Sul","uf":"RS","lon":-51.945593,"lat":-29.607076},{"nome":"Estrela","uf":"RS","lon":-51.949508,"lat":-29.500207},{"nome":"Lajeado","uf":"RS","lon":-51.964427,"lat":-29.459086},{"nome":"Arroio do Meio","uf":"RS","lon":-51.955735,"lat":-29.401353},{"nome":"Barão do Triunfo","uf":"RS","lon":-51.738441,"lat":-30.389072},{"nome":"Arroio dos Ratos","uf":"RS","lon":-51.727479,"lat":-30.087545},{"nome":"São Jerônimo","uf":"RS","lon":-51.725070,"lat":-29.971580},{"nome":"General Câmara","uf":"RS","lon":-51.761178,"lat":-29.903173},{"nome":"Triunfo","uf":"RS","lon":-51.707471,"lat":-29.929129},{"nome":"Mariana Pimentel","uf":"RS","lon":-51.580307,"lat":-30.353048},{"nome":"Eldorado do Sul","uf":"RS","lon":-51.618702,"lat":-30.084676},{"nome":"Charqueadas","uf":"RS","lon":-51.628872,"lat":-29.962478},{"nome":"Taquari","uf":"RS","lon":-51.865346,"lat":-29.794330},{"nome":"Tabaí","uf":"RS","lon":-51.682292,"lat":-29.643041},{"nome":"Fazenda Vilanova","uf":"RS","lon":-51.821714,"lat":-29.588511},{"nome":"Colinas","uf":"RS","lon":-51.855564,"lat":-29.394781},{"nome":"Teutônia","uf":"RS","lon":-51.804375,"lat":-29.448205},{"nome":"Paverama","uf":"RS","lon":-51.733925,"lat":-29.548554},{"nome":"Poço das Antas","uf":"RS","lon":-51.671938,"lat":-29.448097},{"nome":"Montenegro","uf":"RS","lon":-51.467903,"lat":-29.682414},{"nome":"Pareci Novo","uf":"RS","lon":-51.397400,"lat":-29.636538},{"nome":"Brochier","uf":"RS","lon":-51.594516,"lat":-29.550136},{"nome":"Maratá","uf":"RS","lon":-51.557320,"lat":-29.545715},{"nome":"Mundo Novo","uf":"MS","lon":-54.281012,"lat":-23.935540},{"nome":"Eldorado","uf":"MS","lon":-54.283775,"lat":-23.786838},{"nome":"Guaíra","uf":"PR","lon":-54.257327,"lat":-24.085005},{"nome":"Itaquiraí","uf":"MS","lon":-54.186971,"lat":-23.477868},{"nome":"Altônia","uf":"PR","lon":-53.895809,"lat":-23.875916},{"nome":"Francisco Alves","uf":"PR","lon":-53.846124,"lat":-24.066725},{"nome":"São Jorge do Patrocínio","uf":"PR","lon":-53.882275,"lat":-23.764744},{"nome":"Esperança Nova","uf":"PR","lon":-53.810979,"lat":-23.723782},{"nome":"Sales Oliveira","uf":"SP","lon":-47.836873,"lat":-20.769612},{"nome":"Glória de Dourados","uf":"MS","lon":-54.233502,"lat":-22.413628},{"nome":"Deodápolis","uf":"MS","lon":-54.168163,"lat":-22.276272},{"nome":"Novo Horizonte do Sul","uf":"MS","lon":-53.860148,"lat":-22.669322},{"nome":"Ivinhema","uf":"MS","lon":-53.818414,"lat":-22.304571},{"nome":"Angélica","uf":"MS","lon":-53.770789,"lat":-22.152658},{"nome":"Nova Alvorada do Sul","uf":"MS","lon":-54.382491,"lat":-21.465688},{"nome":"Santa Cruz de Monte Castelo","uf":"PR","lon":-53.296342,"lat":-22.954225},{"nome":"São Pedro do Paraná","uf":"PR","lon":-53.224141,"lat":-22.823882},{"nome":"Porto Rico","uf":"PR","lon":-53.267731,"lat":-22.774742},{"nome":"São João do Pau d'Alho","uf":"SP","lon":-51.667172,"lat":-21.266249},{"nome":"Dracena","uf":"SP","lon":-51.535034,"lat":-21.484311},{"nome":"Tupi Paulista","uf":"SP","lon":-51.575004,"lat":-21.382455},{"nome":"Monte Castelo","uf":"SP","lon":-51.567889,"lat":-21.298092},{"nome":"Nova Independência","uf":"SP","lon":-51.490531,"lat":-21.102630},{"nome":"Bela Vista do Paraíso","uf":"PR","lon":-51.192657,"lat":-22.993653},{"nome":"Porecatu","uf":"PR","lon":-51.379490,"lat":-22.753724},{"nome":"Alvorada do Sul","uf":"PR","lon":-51.229709,"lat":-22.781282},{"nome":"Nantes","uf":"SP","lon":-51.239977,"lat":-22.615559},{"nome":"Jaraguari","uf":"MS","lon":-54.399626,"lat":-20.138615},{"nome":"Bandeirantes","uf":"MS","lon":-54.358458,"lat":-19.927490},{"nome":"Ribas do Rio Pardo","uf":"MS","lon":-53.758819,"lat":-20.444533},{"nome":"Camapuã","uf":"MS","lon":-54.043065,"lat":-19.534672},{"nome":"Água Clara","uf":"MS","lon":-52.878990,"lat":-20.445245},{"nome":"Alcinópolis","uf":"MS","lon":-53.704223,"lat":-18.325546},{"nome":"Itiquira","uf":"MT","lon":-54.142214,"lat":-17.214693},{"nome":"Alto Garças","uf":"MT","lon":-53.527209,"lat":-16.946226},{"nome":"Costa Rica","uf":"MS","lon":-53.128732,"lat":-18.543202},{"nome":"Cerro Largo","uf":"RS","lon":-54.742791,"lat":-28.146251},{"nome":"Caibaté","uf":"RS","lon":-54.645407,"lat":-28.290475},{"nome":"Guarani das Missões","uf":"RS","lon":-54.562937,"lat":-28.149117},{"nome":"Cândido Godói","uf":"RS","lon":-54.751722,"lat":-27.951509},{"nome":"Ubiretama","uf":"RS","lon":-54.685952,"lat":-28.040385},{"nome":"Santo Cristo","uf":"RS","lon":-54.661963,"lat":-27.826259},{"nome":"Senador Salgado Filho","uf":"RS","lon":-54.550717,"lat":-28.025007},{"nome":"Porto Vera Cruz","uf":"RS","lon":-54.899370,"lat":-27.740504},{"nome":"Alecrim","uf":"RS","lon":-54.764849,"lat":-27.657856},{"nome":"Porto Mauá","uf":"RS","lon":-54.665739,"lat":-27.579579},{"nome":"Foz do Iguaçu","uf":"PR","lon":-54.582689,"lat":-25.542748},{"nome":"Candiota","uf":"RS","lon":-53.677275,"lat":-31.551553},{"nome":"Santa Vitória do Palmar","uf":"RS","lon":-53.371692,"lat":-33.524980},{"nome":"Jaguarão","uf":"RS","lon":-53.377027,"lat":-32.560378},{"nome":"Lavras do Sul","uf":"RS","lon":-53.893077,"lat":-30.807056},{"nome":"Caçapava do Sul","uf":"RS","lon":-53.482684,"lat":-30.514360},{"nome":"São Gabriel","uf":"RS","lon":-54.321657,"lat":-30.333688},{"nome":"Mata","uf":"RS","lon":-54.464105,"lat":-29.564893},{"nome":"Dilermando de Aguiar","uf":"RS","lon":-54.212241,"lat":-29.705393},{"nome":"São Pedro do Sul","uf":"RS","lon":-54.185516,"lat":-29.620163},{"nome":"Toropi","uf":"RS","lon":-54.224398,"lat":-29.478246},{"nome":"Vila Nova do Sul","uf":"RS","lon":-53.876041,"lat":-30.346131},{"nome":"São Sepé","uf":"RS","lon":-53.560296,"lat":-30.164289},{"nome":"Formigueiro","uf":"RS","lon":-53.495928,"lat":-30.003518},{"nome":"Santa Maria","uf":"RS","lon":-53.814946,"lat":-29.686817},{"nome":"São Martinho da Serra","uf":"RS","lon":-53.859002,"lat":-29.539667},{"nome":"Itaara","uf":"RS","lon":-53.772494,"lat":-29.601285},{"nome":"Silveira Martins","uf":"RS","lon":-53.591018,"lat":-29.646741},{"nome":"Ivorá","uf":"RS","lon":-53.584214,"lat":-29.523224},{"nome":"Piratini","uf":"RS","lon":-53.097296,"lat":-31.447291},{"nome":"Santana da Boa Vista","uf":"RS","lon":-53.109981,"lat":-30.869738},{"nome":"Canguçu","uf":"RS","lon":-52.678254,"lat":-31.395980},{"nome":"Encruzilhada do Sul","uf":"RS","lon":-52.520381,"lat":-30.542998},{"nome":"Restinga Seca","uf":"RS","lon":-53.380657,"lat":-29.818778},{"nome":"Agudo","uf":"RS","lon":-53.251458,"lat":-29.644743},{"nome":"Faxinal do Soturno","uf":"RS","lon":-53.448390,"lat":-29.578836},{"nome":"São João do Polêsine","uf":"RS","lon":-53.443920,"lat":-29.619435},{"nome":"Dona Francisca","uf":"RS","lon":-53.361737,"lat":-29.619507},{"nome":"Nova Palma","uf":"RS","lon":-53.468924,"lat":-29.470981},{"nome":"Nicolau Vergueiro","uf":"RS","lon":-52.467629,"lat":-28.529842},{"nome":"Palmeira das Missões","uf":"RS","lon":-53.313378,"lat":-27.900652},{"nome":"Chapada","uf":"RS","lon":-53.066519,"lat":-28.055865},{"nome":"Novo Barreiro","uf":"RS","lon":-53.110292,"lat":-27.907700},{"nome":"Barra Funda","uf":"RS","lon":-53.039067,"lat":-27.920467},{"nome":"Nova Boa Vista","uf":"RS","lon":-52.978377,"lat":-27.992600},{"nome":"Boa Vista das Missões","uf":"RS","lon":-53.310168,"lat":-27.667123},{"nome":"Jaboticaba","uf":"RS","lon":-53.276173,"lat":-27.634703},{"nome":"Taquaruçu do Sul","uf":"RS","lon":-53.470250,"lat":-27.400452},{"nome":"Seberi","uf":"RS","lon":-53.402634,"lat":-27.482861},{"nome":"Caiçara","uf":"RS","lon":-53.425670,"lat":-27.279121},{"nome":"Frederico Westphalen","uf":"RS","lon":-53.395824,"lat":-27.358644},{"nome":"Cristal do Sul","uf":"RS","lon":-53.242227,"lat":-27.451995},{"nome":"Lajeado do Bugre","uf":"RS","lon":-53.181811,"lat":-27.691310},{"nome":"São José das Missões","uf":"RS","lon":-53.122595,"lat":-27.778908},{"nome":"Sagrada Família","uf":"RS","lon":-53.135053,"lat":-27.708538},{"nome":"Cerro Grande","uf":"RS","lon":-53.167233,"lat":-27.610621},{"nome":"Novo Tiradentes","uf":"RS","lon":-53.183715,"lat":-27.564918},{"nome":"Constantina","uf":"RS","lon":-52.993799,"lat":-27.731974},{"nome":"Liberato Salzano","uf":"RS","lon":-53.075330,"lat":-27.600959},{"nome":"Centenário","uf":"RS","lon":-51.998408,"lat":-27.761547},{"nome":"Carlos Gomes","uf":"RS","lon":-51.912127,"lat":-27.716679},{"nome":"Viadutos","uf":"RS","lon":-52.021144,"lat":-27.571566},{"nome":"Três Arroios","uf":"RS","lon":-52.144753,"lat":-27.500273},{"nome":"Severiano de Almeida","uf":"RS","lon":-52.121704,"lat":-27.436202},{"nome":"Mariano Moro","uf":"RS","lon":-52.146661,"lat":-27.356753},{"nome":"Marcelino Ramos","uf":"RS","lon":-51.909503,"lat":-27.467622},{"nome":"Ibiaçá","uf":"RS","lon":-51.859851,"lat":-28.056556},{"nome":"Caseiros","uf":"RS","lon":-51.686108,"lat":-28.258160},{"nome":"Sananduva","uf":"RS","lon":-51.807949,"lat":-27.947028},{"nome":"São João da Urtiga","uf":"RS","lon":-51.825664,"lat":-27.819507},{"nome":"Santo Expedito do Sul","uf":"RS","lon":-51.643352,"lat":-27.907439},{"nome":"Lagoa Vermelha","uf":"RS","lon":-51.524815,"lat":-28.209335},{"nome":"Rolante","uf":"RS","lon":-50.581937,"lat":-29.646240},{"nome":"Caraá","uf":"RS","lon":-50.431614,"lat":-29.786933},{"nome":"Riozinho","uf":"RS","lon":-50.448781,"lat":-29.638986},{"nome":"São Francisco de Paula","uf":"RS","lon":-50.582796,"lat":-29.440366},{"nome":"Jari","uf":"RS","lon":-54.223711,"lat":-29.292234},{"nome":"Quevedos","uf":"RS","lon":-54.078915,"lat":-29.350413},{"nome":"Vitória das Missões","uf":"RS","lon":-54.504022,"lat":-28.351612},{"nome":"Entre-Ijuís","uf":"RS","lon":-54.268588,"lat":-28.368556},{"nome":"Jóia","uf":"RS","lon":-54.114131,"lat":-28.643484},{"nome":"Eugênio de Castro","uf":"RS","lon":-54.150590,"lat":-28.531467},{"nome":"Coronel Barros","uf":"RS","lon":-54.068621,"lat":-28.392148},{"nome":"Dois Vizinhos","uf":"PR","lon":-53.057016,"lat":-25.740694},{"nome":"Nova Prata do Iguaçu","uf":"PR","lon":-53.346862,"lat":-25.630908},{"nome":"Boa Vista da Aparecida","uf":"PR","lon":-53.411694,"lat":-25.430755},{"nome":"Boa Esperança do Iguaçu","uf":"PR","lon":-53.210818,"lat":-25.632435},{"nome":"Cruzeiro do Iguaçu","uf":"PR","lon":-53.128484,"lat":-25.619214},{"nome":"Três Barras do Paraná","uf":"PR","lon":-53.183350,"lat":-25.418517},{"nome":"Catanduvas","uf":"PR","lon":-53.154826,"lat":-25.204356},{"nome":"Bom Sucesso do Sul","uf":"PR","lon":-52.835297,"lat":-26.073113},{"nome":"Itapejara d'Oeste","uf":"PR","lon":-52.813823,"lat":-25.962030},{"nome":"Verê","uf":"PR","lon":-52.905108,"lat":-25.877201},{"nome":"São Jorge d'Oeste","uf":"PR","lon":-52.913092,"lat":-25.699002},{"nome":"São João","uf":"PR","lon":-52.725240,"lat":-25.821375},{"nome":"Sulina","uf":"PR","lon":-52.729869,"lat":-25.706553},{"nome":"Coronel Vivida","uf":"PR","lon":-52.564054,"lat":-25.976686},{"nome":"Saudade do Iguaçu","uf":"PR","lon":-52.618391,"lat":-25.691686},{"nome":"Chopinzinho","uf":"PR","lon":-52.517293,"lat":-25.851546},{"nome":"Quedas do Iguaçu","uf":"PR","lon":-52.910231,"lat":-25.449161},{"nome":"Espigão Alto do Iguaçu","uf":"PR","lon":-52.834798,"lat":-25.421635},{"nome":"Rio Bonito do Iguaçu","uf":"PR","lon":-52.529206,"lat":-25.487384},{"nome":"Nova Laranjeiras","uf":"PR","lon":-52.544682,"lat":-25.305376},{"nome":"Boqueirão do Leão","uf":"RS","lon":-52.428432,"lat":-29.304620},{"nome":"Progresso","uf":"RS","lon":-52.319721,"lat":-29.244147},{"nome":"Caçador","uf":"SC","lon":-51.012004,"lat":-26.775670},{"nome":"General Carneiro","uf":"PR","lon":-51.317224,"lat":-26.424974},{"nome":"Matos Costa","uf":"SC","lon":-51.150095,"lat":-26.470870},{"nome":"Calmon","uf":"SC","lon":-51.095017,"lat":-26.594241},{"nome":"União da Vitória","uf":"PR","lon":-51.087313,"lat":-26.227319},{"nome":"Porto União","uf":"SC","lon":-51.075858,"lat":-26.245075},{"nome":"Frei Rogério","uf":"SC","lon":-50.807621,"lat":-27.175021},{"nome":"Lebon Régis","uf":"SC","lon":-50.692109,"lat":-26.927987},{"nome":"Ponte Alta do Norte","uf":"SC","lon":-50.465947,"lat":-27.159112},{"nome":"Santa Cecília","uf":"SC","lon":-50.425170,"lat":-26.959182},{"nome":"Timbó Grande","uf":"SC","lon":-50.660720,"lat":-26.612671},{"nome":"Nioaque","uf":"MS","lon":-55.829618,"lat":-21.141882},{"nome":"Laguna Carapã","uf":"MS","lon":-55.150210,"lat":-22.544818},{"nome":"Caarapó","uf":"MS","lon":-54.820928,"lat":-22.636764},{"nome":"Juti","uf":"MS","lon":-54.606120,"lat":-22.859637},{"nome":"Dourados","uf":"MS","lon":-54.812043,"lat":-22.223099},{"nome":"Itaporã","uf":"MS","lon":-54.793381,"lat":-22.080035},{"nome":"Douradina","uf":"MS","lon":-54.615756,"lat":-22.040494},{"nome":"Maracaju","uf":"MS","lon":-55.167763,"lat":-21.610544},{"nome":"Rio Brilhante","uf":"MS","lon":-54.542744,"lat":-21.803258},{"nome":"Bodoquena","uf":"MS","lon":-56.712716,"lat":-20.536983},{"nome":"Corumbá","uf":"MS","lon":-57.651036,"lat":-19.007727},{"nome":"Ladário","uf":"MS","lon":-57.597266,"lat":-19.008894},{"nome":"Miranda","uf":"MS","lon":-56.374594,"lat":-20.235508},{"nome":"Anastácio","uf":"MS","lon":-55.810353,"lat":-20.482292},{"nome":"Aquidauana","uf":"MS","lon":-55.786788,"lat":-20.466552},{"nome":"Dois Irmãos do Buriti","uf":"MS","lon":-55.291453,"lat":-20.684818},{"nome":"Sidrolândia","uf":"MS","lon":-54.969219,"lat":-20.930212},{"nome":"Terenos","uf":"MS","lon":-54.864742,"lat":-20.437845},{"nome":"Rochedo","uf":"MS","lon":-54.884769,"lat":-19.956488},{"nome":"Corguinho","uf":"MS","lon":-54.828074,"lat":-19.824281},{"nome":"Rio Negro","uf":"MS","lon":-54.985873,"lat":-19.447036},{"nome":"Rio Verde de Mato Grosso","uf":"MS","lon":-54.843357,"lat":-18.924945},{"nome":"São Gabriel do Oeste","uf":"MS","lon":-54.550668,"lat":-19.388858},{"nome":"Tupanci do Sul","uf":"RS","lon":-51.538283,"lat":-27.924085},{"nome":"Maximiliano de Almeida","uf":"RS","lon":-51.802049,"lat":-27.632518},{"nome":"Paim Filho","uf":"RS","lon":-51.762988,"lat":-27.707516},{"nome":"Cacique Doble","uf":"RS","lon":-51.659671,"lat":-27.767044},{"nome":"Machadinho","uf":"RS","lon":-51.666805,"lat":-27.566669},{"nome":"Alto Bela Vista","uf":"SC","lon":-51.904435,"lat":-27.433346},{"nome":"Ipira","uf":"SC","lon":-51.775790,"lat":-27.403818},{"nome":"Peritiba","uf":"SC","lon":-51.901793,"lat":-27.375449},{"nome":"Piratuba","uf":"SC","lon":-51.766834,"lat":-27.424228},{"nome":"São José do Ouro","uf":"RS","lon":-51.596620,"lat":-27.770679},{"nome":"Barracão","uf":"RS","lon":-51.458550,"lat":-27.673862},{"nome":"Zortéa","uf":"SC","lon":-51.551993,"lat":-27.452065},{"nome":"Ouro","uf":"SC","lon":-51.619373,"lat":-27.337905},{"nome":"Capinzal","uf":"SC","lon":-51.605702,"lat":-27.347295},{"nome":"Erval Velho","uf":"SC","lon":-51.442990,"lat":-27.274321},{"nome":"Farroupilha","uf":"RS","lon":-51.341853,"lat":-29.222689},{"nome":"Caxias do Sul","uf":"RS","lon":-51.179161,"lat":-29.162905},{"nome":"Presidente Prudente","uf":"SP","lon":-51.392526,"lat":-22.120654},{"nome":"Bataguassu","uf":"MS","lon":-52.422058,"lat":-21.715899},{"nome":"Presidente Epitácio","uf":"SP","lon":-52.111140,"lat":-21.765074},{"nome":"Caiuá","uf":"SP","lon":-51.996918,"lat":-21.832164},{"nome":"Junqueirópolis","uf":"SP","lon":-51.434187,"lat":-21.510348},{"nome":"Panorama","uf":"SP","lon":-51.856185,"lat":-21.353973},{"nome":"Paulicéia","uf":"SP","lon":-51.832098,"lat":-21.315262},{"nome":"Ouro Verde","uf":"SP","lon":-51.702398,"lat":-21.487150},{"nome":"Santa Mercedes","uf":"SP","lon":-51.756353,"lat":-21.349521},{"nome":"Nova Guataporanga","uf":"SP","lon":-51.644655,"lat":-21.331968},{"nome":"Paraíso do Sul","uf":"RS","lon":-53.144034,"lat":-29.671705},{"nome":"Ibarama","uf":"RS","lon":-53.129493,"lat":-29.420321},{"nome":"Sobradinho","uf":"RS","lon":-53.032625,"lat":-29.419439},{"nome":"Passa Sete","uf":"RS","lon":-52.959945,"lat":-29.457667},{"nome":"Cachoeira do Sul","uf":"RS","lon":-52.892756,"lat":-30.032988},{"nome":"Novo Cabrais","uf":"RS","lon":-52.948940,"lat":-29.733752},{"nome":"Cerro Branco","uf":"RS","lon":-52.940610,"lat":-29.656986},{"nome":"Candelária","uf":"RS","lon":-52.789495,"lat":-29.668391},{"nome":"Vera Cruz","uf":"RS","lon":-52.515176,"lat":-29.718435},{"nome":"Santa Cruz do Sul","uf":"RS","lon":-52.434318,"lat":-29.722021},{"nome":"Vale do Sol","uf":"RS","lon":-52.683901,"lat":-29.596724},{"nome":"Herveiras","uf":"RS","lon":-52.655314,"lat":-29.455239},{"nome":"Sinimbu","uf":"RS","lon":-52.530449,"lat":-29.535659},{"nome":"Rio Grande","uf":"RS","lon":-52.107050,"lat":-32.034875},{"nome":"São José do Norte","uf":"RS","lon":-52.033085,"lat":-32.015129},{"nome":"Pelotas","uf":"RS","lon":-52.337058,"lat":-31.764898},{"nome":"Turuçu","uf":"RS","lon":-52.170590,"lat":-31.417284},{"nome":"São Lourenço do Sul","uf":"RS","lon":-51.971531,"lat":-31.356374},{"nome":"Cristal","uf":"RS","lon":-52.043618,"lat":-31.004634},{"nome":"Amaral Ferrador","uf":"RS","lon":-52.250951,"lat":-30.875579},{"nome":"Camaquã","uf":"RS","lon":-51.804310,"lat":-30.848897},{"nome":"Saldanha Marinho","uf":"RS","lon":-53.097006,"lat":-28.394081},{"nome":"Colorado","uf":"RS","lon":-52.992820,"lat":-28.525842},{"nome":"Lagoão","uf":"RS","lon":-52.799698,"lat":-29.234796},{"nome":"Palma Sola","uf":"SC","lon":-53.277091,"lat":-26.347069},{"nome":"Flor da Serra do Sul","uf":"PR","lon":-53.309213,"lat":-26.252326},{"nome":"Tigrinhos","uf":"SC","lon":-53.154529,"lat":-26.687610},{"nome":"Santa Terezinha do Progresso","uf":"SC","lon":-53.199716,"lat":-26.624030},{"nome":"Bom Jesus do Oeste","uf":"SC","lon":-53.096725,"lat":-26.692737},{"nome":"Serra Alta","uf":"SC","lon":-53.040870,"lat":-26.722898},{"nome":"Sul Brasil","uf":"SC","lon":-52.963965,"lat":-26.735148},{"nome":"Saltinho","uf":"SC","lon":-53.057763,"lat":-26.604932},{"nome":"Campo Erê","uf":"SC","lon":-53.085614,"lat":-26.393056},{"nome":"Nova Prata","uf":"RS","lon":-51.611271,"lat":-28.779913},{"nome":"André da Rocha","uf":"RS","lon":-51.579729,"lat":-28.628294},{"nome":"Protásio Alves","uf":"RS","lon":-51.475700,"lat":-28.757189},{"nome":"Ibiraiaras","uf":"RS","lon":-51.637670,"lat":-28.374095},{"nome":"Santa Mônica","uf":"PR","lon":-53.110297,"lat":-23.108005},{"nome":"Tapira","uf":"PR","lon":-53.068446,"lat":-23.319343},{"nome":"Tuneiras do Oeste","uf":"PR","lon":-52.876874,"lat":-23.864798},{"nome":"Tapejara","uf":"PR","lon":-52.873487,"lat":-23.731462},{"nome":"Farol","uf":"PR","lon":-52.621693,"lat":-24.095842},{"nome":"Cerro Grande do Sul","uf":"RS","lon":-51.741846,"lat":-30.590472},{"nome":"Arambaré","uf":"RS","lon":-51.504586,"lat":-30.909248},{"nome":"Sentinela do Sul","uf":"RS","lon":-51.586154,"lat":-30.610707},{"nome":"Sertão Santana","uf":"RS","lon":-51.601694,"lat":-30.456183},{"nome":"Tapes","uf":"RS","lon":-51.399140,"lat":-30.668308},{"nome":"Pantano Grande","uf":"RS","lon":-52.372915,"lat":-30.190155},{"nome":"Rio Pardo","uf":"RS","lon":-52.371130,"lat":-29.988030},{"nome":"Minas do Leão","uf":"RS","lon":-52.042257,"lat":-30.134576},{"nome":"Butiá","uf":"RS","lon":-51.960057,"lat":-30.117920},{"nome":"Vale Verde","uf":"RS","lon":-52.185747,"lat":-29.786445},{"nome":"Passo do Sobrado","uf":"RS","lon":-52.274758,"lat":-29.748041},{"nome":"Venâncio Aires","uf":"RS","lon":-52.193159,"lat":-29.614306},{"nome":"São Pedro da Serra","uf":"RS","lon":-51.513381,"lat":-29.419320},{"nome":"Harmonia","uf":"RS","lon":-51.418502,"lat":-29.545556},{"nome":"Salvador do Sul","uf":"RS","lon":-51.507699,"lat":-29.438561},{"nome":"Barão","uf":"RS","lon":-51.494908,"lat":-29.372474},{"nome":"Tupandi","uf":"RS","lon":-51.417358,"lat":-29.477185},{"nome":"Tavares","uf":"RS","lon":-51.088040,"lat":-31.284266},{"nome":"Mostardas","uf":"RS","lon":-50.916692,"lat":-31.105380},{"nome":"Barra do Ribeiro","uf":"RS","lon":-51.301358,"lat":-30.293884},{"nome":"Guaíba","uf":"RS","lon":-51.323314,"lat":-30.108592},{"nome":"Canoas","uf":"RS","lon":-51.185681,"lat":-29.912758},{"nome":"Viamão","uf":"RS","lon":-51.019435,"lat":-30.081899},{"nome":"Alvorada","uf":"RS","lon":-51.080857,"lat":-29.991400},{"nome":"Cachoeirinha","uf":"RS","lon":-51.101606,"lat":-29.947222},{"nome":"Gravataí","uf":"RS","lon":-50.986891,"lat":-29.941319},{"nome":"Nova Santa Rita","uf":"RS","lon":-51.283736,"lat":-29.852474},{"nome":"Capela de Santana","uf":"RS","lon":-51.327998,"lat":-29.696088},{"nome":"Esteio","uf":"RS","lon":-51.184065,"lat":-29.851963},{"nome":"Sapucaia do Sul","uf":"RS","lon":-51.144975,"lat":-29.827575},{"nome":"São Leopoldo","uf":"RS","lon":-51.149773,"lat":-29.754494},{"nome":"Portão","uf":"RS","lon":-51.242895,"lat":-29.701533},{"nome":"Estância Velha","uf":"RS","lon":-51.184339,"lat":-29.653540},{"nome":"Novo Hamburgo","uf":"RS","lon":-51.132828,"lat":-29.687548},{"nome":"São Sebastião do Caí","uf":"RS","lon":-51.374880,"lat":-29.588517},{"nome":"Bom Princípio","uf":"RS","lon":-51.354763,"lat":-29.485634},{"nome":"São Vendelino","uf":"RS","lon":-51.367515,"lat":-29.372873},{"nome":"Feliz","uf":"RS","lon":-51.303186,"lat":-29.452703},{"nome":"Alto Feliz","uf":"RS","lon":-51.312278,"lat":-29.391928},{"nome":"Vale Real","uf":"RS","lon":-51.255859,"lat":-29.391944},{"nome":"Lindolfo Collor","uf":"RS","lon":-51.214112,"lat":-29.585906},{"nome":"São José do Hortêncio","uf":"RS","lon":-51.245048,"lat":-29.527962},{"nome":"Ivoti","uf":"RS","lon":-51.153326,"lat":-29.599463},{"nome":"Presidente Lucena","uf":"RS","lon":-51.179798,"lat":-29.517549},{"nome":"Linha Nova","uf":"RS","lon":-51.200297,"lat":-29.467929},{"nome":"Picada Café","uf":"RS","lon":-51.136725,"lat":-29.446421},{"nome":"Campo Bom","uf":"RS","lon":-51.060601,"lat":-29.674694},{"nome":"Sapiranga","uf":"RS","lon":-51.006446,"lat":-29.634885},{"nome":"Dois Irmãos","uf":"RS","lon":-51.089776,"lat":-29.583560},{"nome":"Morro Reuter","uf":"RS","lon":-51.081119,"lat":-29.537934},{"nome":"Nova Petrópolis","uf":"RS","lon":-51.113552,"lat":-29.374112},{"nome":"Santa Maria do Herval","uf":"RS","lon":-50.991917,"lat":-29.490163},{"nome":"Araricá","uf":"RS","lon":-50.929128,"lat":-29.616832},{"nome":"Nova Hartz","uf":"RS","lon":-50.905108,"lat":-29.580752},{"nome":"Gramado","uf":"RS","lon":-50.876164,"lat":-29.373351},{"nome":"Palmares do Sul","uf":"RS","lon":-50.510297,"lat":-30.253485},{"nome":"Capivari do Sul","uf":"RS","lon":-50.515152,"lat":-30.138251},{"nome":"Glorinha","uf":"RS","lon":-50.773363,"lat":-29.879798},{"nome":"Parobé","uf":"RS","lon":-50.831180,"lat":-29.624257},{"nome":"Taquara","uf":"RS","lon":-50.775278,"lat":-29.650471},{"nome":"Igrejinha","uf":"RS","lon":-50.791894,"lat":-29.569318},{"nome":"Três Coroas","uf":"RS","lon":-50.773869,"lat":-29.513719},{"nome":"Santo Antônio da Patrulha","uf":"RS","lon":-50.517489,"lat":-29.826768},{"nome":"Tupanciretã","uf":"RS","lon":-53.844469,"lat":-29.085775},{"nome":"Júlio de Castilhos","uf":"RS","lon":-53.677168,"lat":-29.229855},{"nome":"Augusto Pestana","uf":"RS","lon":-53.988292,"lat":-28.517249},{"nome":"Ijuí","uf":"RS","lon":-53.919960,"lat":-28.388048},{"nome":"Cruz Alta","uf":"RS","lon":-53.604831,"lat":-28.645001},{"nome":"Pejuçara","uf":"RS","lon":-53.657854,"lat":-28.428256},{"nome":"Sete de Setembro","uf":"RS","lon":-54.463682,"lat":-28.136169},{"nome":"Santo Ângelo","uf":"RS","lon":-54.266781,"lat":-28.300128},{"nome":"Santa Rosa","uf":"RS","lon":-54.479629,"lat":-27.870200},{"nome":"Giruá","uf":"RS","lon":-54.351680,"lat":-28.029664},{"nome":"Catuípe","uf":"RS","lon":-54.013215,"lat":-28.255356},{"nome":"Independência","uf":"RS","lon":-54.188640,"lat":-27.835411},{"nome":"Inhacorá","uf":"RS","lon":-54.014978,"lat":-27.875187},{"nome":"Alegria","uf":"RS","lon":-54.055732,"lat":-27.834467},{"nome":"Tuparendi","uf":"RS","lon":-54.481434,"lat":-27.759768},{"nome":"Tucunduva","uf":"RS","lon":-54.443880,"lat":-27.657292},{"nome":"Novo Machado","uf":"RS","lon":-54.503592,"lat":-27.576473},{"nome":"Horizontina","uf":"RS","lon":-54.305336,"lat":-27.628238},{"nome":"Doutor Maurício Cardoso","uf":"RS","lon":-54.357746,"lat":-27.510309},{"nome":"Três de Maio","uf":"RS","lon":-54.235709,"lat":-27.780037},{"nome":"São José do Inhacorá","uf":"RS","lon":-54.127462,"lat":-27.725055},{"nome":"Boa Vista do Buricá","uf":"RS","lon":-54.108229,"lat":-27.669280},{"nome":"Nova Candelária","uf":"RS","lon":-54.107401,"lat":-27.613677},{"nome":"Crissiumal","uf":"RS","lon":-54.099372,"lat":-27.499890},{"nome":"Tiradentes do Sul","uf":"RS","lon":-54.081367,"lat":-27.402229},{"nome":"Ajuricaba","uf":"RS","lon":-53.775668,"lat":-28.234170},{"nome":"Chiapetta","uf":"RS","lon":-53.941871,"lat":-27.923017},{"nome":"São Valério do Sul","uf":"RS","lon":-53.936771,"lat":-27.790639},{"nome":"Santo Augusto","uf":"RS","lon":-53.777605,"lat":-27.852577},{"nome":"Nova Ramada","uf":"RS","lon":-53.699168,"lat":-28.066731},{"nome":"Panambi","uf":"RS","lon":-53.502261,"lat":-28.283328},{"nome":"Condor","uf":"RS","lon":-53.490545,"lat":-28.207533},{"nome":"São Martinho","uf":"RS","lon":-53.969899,"lat":-27.711169},{"nome":"Sede Nova","uf":"RS","lon":-53.949290,"lat":-27.636739},{"nome":"Humaitá","uf":"RS","lon":-53.969525,"lat":-27.569065},{"nome":"Bom Progresso","uf":"RS","lon":-53.871608,"lat":-27.539856},{"nome":"Campo Novo","uf":"RS","lon":-53.805209,"lat":-27.679200},{"nome":"Braga","uf":"RS","lon":-53.740514,"lat":-27.617348},{"nome":"Três Passos","uf":"RS","lon":-53.929631,"lat":-27.455471},{"nome":"Esperança do Sul","uf":"RS","lon":-53.989081,"lat":-27.360276},{"nome":"Derrubadas","uf":"RS","lon":-53.864535,"lat":-27.264151},{"nome":"Tenente Portela","uf":"RS","lon":-53.758484,"lat":-27.371058},{"nome":"Coronel Bicaco","uf":"RS","lon":-53.702164,"lat":-27.719699},{"nome":"Redentora","uf":"RS","lon":-53.640668,"lat":-27.663954},{"nome":"Dois Irmãos das Missões","uf":"RS","lon":-53.530413,"lat":-27.662103},{"nome":"Erval Seco","uf":"RS","lon":-53.500501,"lat":-27.544314},{"nome":"Miraguaí","uf":"RS","lon":-53.689078,"lat":-27.496970},{"nome":"Vista Gaúcha","uf":"RS","lon":-53.697382,"lat":-27.290217},{"nome":"Palmitinho","uf":"RS","lon":-53.558029,"lat":-27.359574},{"nome":"Vista Alegre","uf":"RS","lon":-53.491876,"lat":-27.368619},{"nome":"Pinhal Grande","uf":"RS","lon":-53.320649,"lat":-29.345000},{"nome":"Arroio do Tigre","uf":"RS","lon":-53.096627,"lat":-29.334829},{"nome":"Estrela Velha","uf":"RS","lon":-53.163870,"lat":-29.171269},{"nome":"Segredo","uf":"RS","lon":-52.976673,"lat":-29.352337},{"nome":"Tunas","uf":"RS","lon":-52.953843,"lat":-29.103944},{"nome":"Salto do Jacuí","uf":"RS","lon":-53.213326,"lat":-29.095065},{"nome":"Campos Borges","uf":"RS","lon":-53.000812,"lat":-28.887148},{"nome":"Fortaleza dos Valos","uf":"RS","lon":-53.224906,"lat":-28.798596},{"nome":"Santa Bárbara do Sul","uf":"RS","lon":-53.251041,"lat":-28.365330},{"nome":"Quinze de Novembro","uf":"RS","lon":-53.101096,"lat":-28.746552},{"nome":"Ibirubá","uf":"RS","lon":-53.096124,"lat":-28.630161},{"nome":"Alto Alegre","uf":"RS","lon":-52.989255,"lat":-28.776865},{"nome":"Gramado Xavier","uf":"RS","lon":-52.579491,"lat":-29.270571},{"nome":"Barros Cassal","uf":"RS","lon":-52.583571,"lat":-29.094686},{"nome":"Espumoso","uf":"RS","lon":-52.846080,"lat":-28.728633},{"nome":"Selbach","uf":"RS","lon":-52.949768,"lat":-28.629435},{"nome":"Tapera","uf":"RS","lon":-52.861253,"lat":-28.627729},{"nome":"Mormaço","uf":"RS","lon":-52.699916,"lat":-28.696814},{"nome":"Lagoa dos Três Cantos","uf":"RS","lon":-52.861848,"lat":-28.567611},{"nome":"Não-Me-Toque","uf":"RS","lon":-52.818156,"lat":-28.454776},{"nome":"Victor Graeff","uf":"RS","lon":-52.749535,"lat":-28.563163},{"nome":"Santo Antônio do Planalto","uf":"RS","lon":-52.699233,"lat":-28.403046},{"nome":"Soledade","uf":"RS","lon":-52.513083,"lat":-28.830613},{"nome":"Ibirapuitã","uf":"RS","lon":-52.515796,"lat":-28.624707},{"nome":"Ernestina","uf":"RS","lon":-52.583566,"lat":-28.497674},{"nome":"Pinhal","uf":"RS","lon":-53.208185,"lat":-27.508022},{"nome":"Rodeio Bonito","uf":"RS","lon":-53.170583,"lat":-27.474203},{"nome":"Ametista do Sul","uf":"RS","lon":-53.183005,"lat":-27.360656},{"nome":"Planalto","uf":"RS","lon":-53.057530,"lat":-27.329695},{"nome":"Carazinho","uf":"RS","lon":-52.793260,"lat":-28.295844},{"nome":"Coqueiros do Sul","uf":"RS","lon":-52.784221,"lat":-28.119421},{"nome":"Sarandi","uf":"RS","lon":-52.923085,"lat":-27.942000},{"nome":"Rondinha","uf":"RS","lon":-52.908107,"lat":-27.831451},{"nome":"Pontão","uf":"RS","lon":-52.679091,"lat":-28.058478},{"nome":"Engenho Velho","uf":"RS","lon":-52.914540,"lat":-27.706026},{"nome":"Três Palmeiras","uf":"RS","lon":-52.843718,"lat":-27.613889},{"nome":"Ronda Alta","uf":"RS","lon":-52.805587,"lat":-27.775799},{"nome":"Entre Rios do Sul","uf":"RS","lon":-52.734708,"lat":-27.529836},{"nome":"Trindade do Sul","uf":"RS","lon":-52.895593,"lat":-27.523896},{"nome":"Gramado dos Loureiros","uf":"RS","lon":-52.914861,"lat":-27.442895},{"nome":"Rio dos Índios","uf":"RS","lon":-52.841749,"lat":-27.297280},{"nome":"Nonoai","uf":"RS","lon":-52.775564,"lat":-27.368918},{"nome":"Campinas do Sul","uf":"RS","lon":-52.624808,"lat":-27.717426},{"nome":"Jacutinga","uf":"RS","lon":-52.537240,"lat":-27.729135},{"nome":"Ponte Preta","uf":"RS","lon":-52.484817,"lat":-27.658692},{"nome":"São Valentim","uf":"RS","lon":-52.523714,"lat":-27.558284},{"nome":"Faxinalzinho","uf":"RS","lon":-52.678917,"lat":-27.423770},{"nome":"Benjamin Constant do Sul","uf":"RS","lon":-52.599504,"lat":-27.508565},{"nome":"Erval Grande","uf":"RS","lon":-52.574036,"lat":-27.392599},{"nome":"Itatiba do Sul","uf":"RS","lon":-52.453776,"lat":-27.384631},{"nome":"Barra do Guarita","uf":"RS","lon":-53.710867,"lat":-27.192672},{"nome":"Itapiranga","uf":"SC","lon":-53.716603,"lat":-27.165856},{"nome":"Pinheirinho do Vale","uf":"RS","lon":-53.608017,"lat":-27.210886},{"nome":"São João do Oeste","uf":"SC","lon":-53.597657,"lat":-27.098353},{"nome":"Tunápolis","uf":"SC","lon":-53.641725,"lat":-26.968103},{"nome":"Santa Helena","uf":"SC","lon":-53.621439,"lat":-26.936966},{"nome":"Bandeirante","uf":"SC","lon":-53.641326,"lat":-26.770499},{"nome":"Iporã do Oeste","uf":"SC","lon":-53.535483,"lat":-26.985396},{"nome":"Belmonte","uf":"SC","lon":-53.575810,"lat":-26.842994},{"nome":"Descanso","uf":"SC","lon":-53.503395,"lat":-26.826971},{"nome":"Paraíso","uf":"SC","lon":-53.671595,"lat":-26.620024},{"nome":"São Miguel do Oeste","uf":"SC","lon":-53.516259,"lat":-26.724224},{"nome":"Guaraciaba","uf":"SC","lon":-53.524317,"lat":-26.604199},{"nome":"Dionísio Cerqueira","uf":"SC","lon":-53.635149,"lat":-26.264784},{"nome":"Barracão","uf":"PR","lon":-53.632385,"lat":-26.250230},{"nome":"Princesa","uf":"SC","lon":-53.599427,"lat":-26.444120},{"nome":"São José do Cedro","uf":"SC","lon":-53.495456,"lat":-26.456135},{"nome":"Guarujá do Sul","uf":"SC","lon":-53.529575,"lat":-26.385813},{"nome":"Santa Terezinha de Itaipu","uf":"PR","lon":-54.400725,"lat":-25.434417},{"nome":"São Miguel do Iguaçu","uf":"PR","lon":-54.240498,"lat":-25.349171},{"nome":"Medianeira","uf":"PR","lon":-54.094308,"lat":-25.297665},{"nome":"Serranópolis do Iguaçu","uf":"PR","lon":-54.051822,"lat":-25.379915},{"nome":"Pranchita","uf":"PR","lon":-53.741112,"lat":-26.021968},{"nome":"Pérola d'Oeste","uf":"PR","lon":-53.744742,"lat":-25.820958},{"nome":"Planalto","uf":"PR","lon":-53.764234,"lat":-25.721135},{"nome":"Santo Antônio do Sudoeste","uf":"PR","lon":-53.725100,"lat":-26.073708},{"nome":"Bom Jesus do Sul","uf":"PR","lon":-53.595493,"lat":-26.195802},{"nome":"Pinhal de São Bento","uf":"PR","lon":-53.481998,"lat":-26.032422},{"nome":"Bela Vista da Caroba","uf":"PR","lon":-53.672505,"lat":-25.884179},{"nome":"Santa Izabel do Oeste","uf":"PR","lon":-53.480146,"lat":-25.821652},{"nome":"Realeza","uf":"PR","lon":-53.526030,"lat":-25.771093},{"nome":"Capanema","uf":"PR","lon":-53.805508,"lat":-25.669099},{"nome":"Matelândia","uf":"PR","lon":-53.993492,"lat":-25.249571},{"nome":"Capitão Leônidas Marques","uf":"PR","lon":-53.611238,"lat":-25.481645},{"nome":"Santa Lúcia","uf":"PR","lon":-53.563796,"lat":-25.410355},{"nome":"Lindoeste","uf":"PR","lon":-53.573298,"lat":-25.259616},{"nome":"Vicente Dutra","uf":"RS","lon":-53.402211,"lat":-27.160749},{"nome":"Mondaí","uf":"SC","lon":-53.403177,"lat":-27.100785},{"nome":"Iraí","uf":"RS","lon":-53.254322,"lat":-27.195070},{"nome":"Riqueza","uf":"SC","lon":-53.326452,"lat":-27.065325},{"nome":"Caibi","uf":"SC","lon":-53.245751,"lat":-27.074102},{"nome":"Flor do Sertão","uf":"SC","lon":-53.350522,"lat":-26.781143},{"nome":"Iraceminha","uf":"SC","lon":-53.276682,"lat":-26.821536},{"nome":"Palmitos","uf":"SC","lon":-53.158612,"lat":-27.070219},{"nome":"Alpestre","uf":"RS","lon":-53.034127,"lat":-27.250159},{"nome":"São Carlos","uf":"SC","lon":-53.003704,"lat":-27.079757},{"nome":"Águas de Chapecó","uf":"SC","lon":-52.980844,"lat":-27.075424},{"nome":"Cunha Porã","uf":"SC","lon":-53.166185,"lat":-26.895019},{"nome":"Cunhataí","uf":"SC","lon":-53.089474,"lat":-26.970924},{"nome":"Maravilha","uf":"SC","lon":-53.173699,"lat":-26.766529},{"nome":"Saudades","uf":"SC","lon":-53.002130,"lat":-26.931677},{"nome":"Modelo","uf":"SC","lon":-53.039956,"lat":-26.772924},{"nome":"Pinhalzinho","uf":"SC","lon":-52.991268,"lat":-26.849546},{"nome":"Barra Bonita","uf":"SC","lon":-53.440000,"lat":-26.654000},{"nome":"Romelândia","uf":"SC","lon":-53.317193,"lat":-26.680888},{"nome":"São Miguel da Boa Vista","uf":"SC","lon":-53.251107,"lat":-26.686961},{"nome":"Anchieta","uf":"SC","lon":-53.331908,"lat":-26.538216},{"nome":"São Bernardino","uf":"SC","lon":-52.968669,"lat":-26.473926},{"nome":"Caxambu do Sul","uf":"SC","lon":-52.880718,"lat":-27.162401},{"nome":"Planalto Alegre","uf":"SC","lon":-52.866990,"lat":-27.070423},{"nome":"Guatambú","uf":"SC","lon":-52.788650,"lat":-27.134102},{"nome":"Nova Erechim","uf":"SC","lon":-52.906569,"lat":-26.898159},{"nome":"Águas Frias","uf":"SC","lon":-52.856773,"lat":-26.879377},{"nome":"União do Oeste","uf":"SC","lon":-52.854123,"lat":-26.762040},{"nome":"Nova Itaberaba","uf":"SC","lon":-52.814076,"lat":-26.942805},{"nome":"Coronel Freitas","uf":"SC","lon":-52.701122,"lat":-26.905713},{"nome":"Chapecó","uf":"SC","lon":-52.615190,"lat":-27.100448},{"nome":"Paial","uf":"SC","lon":-52.497517,"lat":-27.254105},{"nome":"Arvoredo","uf":"SC","lon":-52.454260,"lat":-27.074816},{"nome":"Cordilheira Alta","uf":"SC","lon":-52.605582,"lat":-26.984403},{"nome":"Marema","uf":"SC","lon":-52.626445,"lat":-26.802361},{"nome":"Lajeado Grande","uf":"SC","lon":-52.564782,"lat":-26.857614},{"nome":"Xaxim","uf":"SC","lon":-52.537446,"lat":-26.959643},{"nome":"Irati","uf":"SC","lon":-52.895513,"lat":-26.653862},{"nome":"Jardinópolis","uf":"SC","lon":-52.862524,"lat":-26.719136},{"nome":"Formosa do Sul","uf":"SC","lon":-52.794636,"lat":-26.645272},{"nome":"Quilombo","uf":"SC","lon":-52.723960,"lat":-26.726432},{"nome":"Novo Horizonte","uf":"SC","lon":-52.828104,"lat":-26.444218},{"nome":"São Lourenço do Oeste","uf":"SC","lon":-52.849837,"lat":-26.355660},{"nome":"Jupiá","uf":"SC","lon":-52.729766,"lat":-26.395038},{"nome":"Vitorino","uf":"PR","lon":-52.784266,"lat":-26.268282},{"nome":"Santiago do Sul","uf":"SC","lon":-52.679852,"lat":-26.638784},{"nome":"Coronel Martins","uf":"SC","lon":-52.669361,"lat":-26.511043},{"nome":"Entre Rios","uf":"SC","lon":-52.558504,"lat":-26.722474},{"nome":"Ipuaçu","uf":"SC","lon":-52.456633,"lat":-26.632025},{"nome":"São Domingos","uf":"SC","lon":-52.531333,"lat":-26.554811},{"nome":"Galvão","uf":"SC","lon":-52.687528,"lat":-26.454934},{"nome":"Pato Branco","uf":"PR","lon":-52.670630,"lat":-26.229237},{"nome":"Mariópolis","uf":"PR","lon":-52.549736,"lat":-26.351072},{"nome":"Salgado Filho","uf":"PR","lon":-53.363116,"lat":-26.177664},{"nome":"Manfrinópolis","uf":"PR","lon":-53.315257,"lat":-26.147968},{"nome":"Ampére","uf":"PR","lon":-53.468640,"lat":-25.916791},{"nome":"Nova Esperança do Sudoeste","uf":"PR","lon":-53.265240,"lat":-25.906070},{"nome":"Salto do Lontra","uf":"PR","lon":-53.313528,"lat":-25.781257},{"nome":"Marmeleiro","uf":"PR","lon":-53.026741,"lat":-26.147200},{"nome":"Renascença","uf":"PR","lon":-52.970349,"lat":-26.158837},{"nome":"Francisco Beltrão","uf":"PR","lon":-53.053466,"lat":-26.081677},{"nome":"Enéas Marques","uf":"PR","lon":-53.165860,"lat":-25.944525},{"nome":"Irineópolis","uf":"SC","lon":-50.795687,"lat":-26.242006},{"nome":"Bela Vista do Toldo","uf":"SC","lon":-50.466354,"lat":-26.274625},{"nome":"Cruz Machado","uf":"PR","lon":-51.342965,"lat":-26.016640},{"nome":"Porto Vitória","uf":"PR","lon":-51.230976,"lat":-26.167404},{"nome":"Paula Freitas","uf":"PR","lon":-50.930983,"lat":-26.210513},{"nome":"Inácio Martins","uf":"PR","lon":-51.076925,"lat":-25.570395},{"nome":"Prudentópolis","uf":"PR","lon":-50.975396,"lat":-25.211083},{"nome":"Paulo Frontin","uf":"PR","lon":-50.830423,"lat":-26.046565},{"nome":"Mallet","uf":"PR","lon":-50.817346,"lat":-25.880588},{"nome":"Rio Azul","uf":"PR","lon":-50.798543,"lat":-25.730580},{"nome":"Canoinhas","uf":"SC","lon":-50.395001,"lat":-26.176591},{"nome":"São Mateus do Sul","uf":"PR","lon":-50.383985,"lat":-25.867655},{"nome":"Rebouças","uf":"PR","lon":-50.687727,"lat":-25.623198},{"nome":"Irati","uf":"PR","lon":-50.649287,"lat":-25.469663},{"nome":"Guamiranga","uf":"PR","lon":-50.802109,"lat":-25.191167},{"nome":"Imbituva","uf":"PR","lon":-50.598856,"lat":-25.228538},{"nome":"Fernandes Pinheiro","uf":"PR","lon":-50.545601,"lat":-25.410742},{"nome":"Teixeira Soares","uf":"PR","lon":-50.457072,"lat":-25.370100},{"nome":"Porto Murtinho","uf":"MS","lon":-57.883586,"lat":-21.698078},{"nome":"Caracol","uf":"MS","lon":-57.027672,"lat":-22.011017},{"nome":"Paranhos","uf":"MS","lon":-55.429018,"lat":-23.891067},{"nome":"Coronel Sapucaia","uf":"MS","lon":-55.527811,"lat":-23.272407},{"nome":"Amambaí","uf":"MS","lon":-55.225327,"lat":-23.105760},{"nome":"Sete Quedas","uf":"MS","lon":-55.039840,"lat":-23.970508},{"nome":"Tacuru","uf":"MS","lon":-55.014137,"lat":-23.635954},{"nome":"Iguatemi","uf":"MS","lon":-54.563731,"lat":-23.673555},{"nome":"Bela Vista","uf":"MS","lon":-56.526288,"lat":-22.107327},{"nome":"Aral Moreira","uf":"MS","lon":-55.633451,"lat":-22.938467},{"nome":"Antônio João","uf":"MS","lon":-55.951681,"lat":-22.192701},{"nome":"Ponta Porã","uf":"MS","lon":-55.720326,"lat":-22.529617},{"nome":"Bonito","uf":"MS","lon":-56.483565,"lat":-21.126096},{"nome":"Jardim","uf":"MS","lon":-56.148902,"lat":-21.479941},{"nome":"Guia Lopes da Laguna","uf":"MS","lon":-56.111711,"lat":-21.458318},{"nome":"Pouso Novo","uf":"RS","lon":-52.213588,"lat":-29.173793},{"nome":"Fontoura Xavier","uf":"RS","lon":-52.344455,"lat":-28.981655},{"nome":"São José do Herval","uf":"RS","lon":-52.294991,"lat":-29.052035},{"nome":"Arvorezinha","uf":"RS","lon":-52.178080,"lat":-28.873690},{"nome":"Marques de Souza","uf":"RS","lon":-52.097268,"lat":-29.331113},{"nome":"Travesseiro","uf":"RS","lon":-52.053228,"lat":-29.297662},{"nome":"Relvado","uf":"RS","lon":-52.077831,"lat":-29.116376},{"nome":"Capitão","uf":"RS","lon":-51.985280,"lat":-29.267386},{"nome":"Nova Bréscia","uf":"RS","lon":-52.031862,"lat":-29.218186},{"nome":"Putinga","uf":"RS","lon":-52.156904,"lat":-29.004494},{"nome":"Ilópolis","uf":"RS","lon":-52.125816,"lat":-28.928250},{"nome":"Doutor Ricardo","uf":"RS","lon":-51.997155,"lat":-29.083957},{"nome":"Anta Gorda","uf":"RS","lon":-52.010191,"lat":-28.969772},{"nome":"Itapuca","uf":"RS","lon":-52.169283,"lat":-28.776844},{"nome":"Camargo","uf":"RS","lon":-52.200263,"lat":-28.587979},{"nome":"Marau","uf":"RS","lon":-52.198625,"lat":-28.449754},{"nome":"Nova Alvorada","uf":"RS","lon":-52.163080,"lat":-28.682231},{"nome":"Montauri","uf":"RS","lon":-52.076728,"lat":-28.646161},{"nome":"União da Serra","uf":"RS","lon":-52.023783,"lat":-28.783285},{"nome":"Serafina Corrêa","uf":"RS","lon":-51.935250,"lat":-28.712621},{"nome":"Vila Maria","uf":"RS","lon":-52.148648,"lat":-28.535853},{"nome":"Casca","uf":"RS","lon":-51.981452,"lat":-28.560516},{"nome":"Santo Antônio do Palma","uf":"RS","lon":-52.026701,"lat":-28.495554},{"nome":"Gentil","uf":"RS","lon":-52.033695,"lat":-28.431641},{"nome":"Roca Sales","uf":"RS","lon":-51.865840,"lat":-29.288398},{"nome":"Encantado","uf":"RS","lon":-51.870282,"lat":-29.235141},{"nome":"Imigrante","uf":"RS","lon":-51.774752,"lat":-29.350776},{"nome":"Muçum","uf":"RS","lon":-51.871367,"lat":-29.163002},{"nome":"Boa Vista do Sul","uf":"RS","lon":-51.668725,"lat":-29.354406},{"nome":"Santa Tereza","uf":"RS","lon":-51.735066,"lat":-29.165467},{"nome":"Vespasiano Correa","uf":"RS","lon":-51.862495,"lat":-29.065506},{"nome":"Dois Lajeados","uf":"RS","lon":-51.839584,"lat":-28.983006},{"nome":"Guaporé","uf":"RS","lon":-51.889542,"lat":-28.839917},{"nome":"São Valentim do Sul","uf":"RS","lon":-51.768356,"lat":-29.045056},{"nome":"Cotiporã","uf":"RS","lon":-51.697067,"lat":-28.989106},{"nome":"Fagundes Varela","uf":"RS","lon":-51.701425,"lat":-28.879386},{"nome":"Garibaldi","uf":"RS","lon":-51.535179,"lat":-29.258979},{"nome":"Monte Belo do Sul","uf":"RS","lon":-51.633263,"lat":-29.160740},{"nome":"Bento Gonçalves","uf":"RS","lon":-51.516476,"lat":-29.166212},{"nome":"Carlos Barbosa","uf":"RS","lon":-51.502847,"lat":-29.296949},{"nome":"Veranópolis","uf":"RS","lon":-51.551614,"lat":-28.931197},{"nome":"Vila Flores","uf":"RS","lon":-51.550371,"lat":-28.859825},{"nome":"Nova Roma do Sul","uf":"RS","lon":-51.409511,"lat":-28.988173},{"nome":"Vista Alegre do Prata","uf":"RS","lon":-51.794650,"lat":-28.805218},{"nome":"Paraí","uf":"RS","lon":-51.789602,"lat":-28.596384},{"nome":"Nova Bassano","uf":"RS","lon":-51.707194,"lat":-28.729088},{"nome":"Nova Araçá","uf":"RS","lon":-51.745802,"lat":-28.653741},{"nome":"São Domingos do Sul","uf":"RS","lon":-51.885980,"lat":-28.531151},{"nome":"Vanini","uf":"RS","lon":-51.844723,"lat":-28.475833},{"nome":"David Canabarro","uf":"RS","lon":-51.848205,"lat":-28.384907},{"nome":"Ciríaco","uf":"RS","lon":-51.874143,"lat":-28.341913},{"nome":"Guabiju","uf":"RS","lon":-51.694830,"lat":-28.542083},{"nome":"São Jorge","uf":"RS","lon":-51.706422,"lat":-28.498445},{"nome":"Muliterno","uf":"RS","lon":-51.769675,"lat":-28.325299},{"nome":"Passo Fundo","uf":"RS","lon":-52.409112,"lat":-28.257564},{"nome":"Coxilha","uf":"RS","lon":-52.302343,"lat":-28.127970},{"nome":"Mato Castelhano","uf":"RS","lon":-52.193231,"lat":-28.280019},{"nome":"Ipiranga do Sul","uf":"RS","lon":-52.427124,"lat":-27.940366},{"nome":"Erebango","uf":"RS","lon":-52.300486,"lat":-27.854386},{"nome":"Sertão","uf":"RS","lon":-52.258780,"lat":-27.979782},{"nome":"Estação","uf":"RS","lon":-52.263536,"lat":-27.913468},{"nome":"Getúlio Vargas","uf":"RS","lon":-52.229357,"lat":-27.891093},{"nome":"Vila Lângaro","uf":"RS","lon":-52.143795,"lat":-28.106184},{"nome":"Água Santa","uf":"RS","lon":-52.031004,"lat":-28.167228},{"nome":"Tapejara","uf":"RS","lon":-52.009665,"lat":-28.065237},{"nome":"Floriano Peixoto","uf":"RS","lon":-52.083775,"lat":-27.861391},{"nome":"Charrua","uf":"RS","lon":-52.015005,"lat":-27.949268},{"nome":"Barão de Cotegipe","uf":"RS","lon":-52.379820,"lat":-27.620785},{"nome":"Erechim","uf":"RS","lon":-52.269690,"lat":-27.636380},{"nome":"Barra do Rio Azul","uf":"RS","lon":-52.408375,"lat":-27.406855},{"nome":"Itá","uf":"SC","lon":-52.321187,"lat":-27.290666},{"nome":"Aratiba","uf":"RS","lon":-52.297461,"lat":-27.397787},{"nome":"Áurea","uf":"RS","lon":-52.050506,"lat":-27.693586},{"nome":"Gaurama","uf":"RS","lon":-52.091529,"lat":-27.585587},{"nome":"Nova Pádua","uf":"RS","lon":-51.309752,"lat":-29.027509},{"nome":"Antônio Prado","uf":"RS","lon":-51.288263,"lat":-28.856544},{"nome":"Flores da Cunha","uf":"RS","lon":-51.187457,"lat":-29.026147},{"nome":"São Marcos","uf":"RS","lon":-51.069559,"lat":-28.967659},{"nome":"Ipê","uf":"RS","lon":-51.285931,"lat":-28.817098},{"nome":"Muitos Capões","uf":"RS","lon":-51.183593,"lat":-28.313183},{"nome":"Campestre da Serra","uf":"RS","lon":-51.094148,"lat":-28.792585},{"nome":"Vacaria","uf":"RS","lon":-50.941791,"lat":-28.507868},{"nome":"Canela","uf":"RS","lon":-50.811921,"lat":-29.355993},{"nome":"Jaquirana","uf":"RS","lon":-50.363681,"lat":-28.881098},{"nome":"Monte Alegre dos Campos","uf":"RS","lon":-50.783385,"lat":-28.680495},{"nome":"Bom Jesus","uf":"RS","lon":-50.429453,"lat":-28.669703},{"nome":"Esmeralda","uf":"RS","lon":-51.193270,"lat":-28.051762},{"nome":"Cerro Negro","uf":"SC","lon":-50.867264,"lat":-27.794205},{"nome":"Celso Ramos","uf":"SC","lon":-51.335003,"lat":-27.632708},{"nome":"Anita Garibaldi","uf":"SC","lon":-51.127143,"lat":-27.689743},{"nome":"Campos Novos","uf":"SC","lon":-51.227589,"lat":-27.400184},{"nome":"Abdon Batista","uf":"SC","lon":-51.023275,"lat":-27.612628},{"nome":"Vargem","uf":"SC","lon":-50.972355,"lat":-27.486714},{"nome":"Brunópolis","uf":"SC","lon":-50.868370,"lat":-27.305781},{"nome":"Campo Belo do Sul","uf":"SC","lon":-50.759550,"lat":-27.897540},{"nome":"Capão Alto","uf":"SC","lon":-50.509788,"lat":-27.938936},{"nome":"São José do Cerrito","uf":"SC","lon":-50.573305,"lat":-27.660189},{"nome":"Correia Pinto","uf":"SC","lon":-50.361448,"lat":-27.587688},{"nome":"Curitibanos","uf":"SC","lon":-50.581638,"lat":-27.282373},{"nome":"Ponte Alta","uf":"SC","lon":-50.376404,"lat":-27.483497},{"nome":"São Cristovão do Sul","uf":"SC","lon":-50.438807,"lat":-27.266627},{"nome":"Seara","uf":"SC","lon":-52.299045,"lat":-27.156432},{"nome":"Xavantina","uf":"SC","lon":-52.342994,"lat":-27.066700},{"nome":"Xanxerê","uf":"SC","lon":-52.403579,"lat":-26.874694},{"nome":"Faxinal dos Guedes","uf":"SC","lon":-52.259624,"lat":-26.845104},{"nome":"Arabutã","uf":"SC","lon":-52.142263,"lat":-27.158691},{"nome":"Ipumirim","uf":"SC","lon":-52.128873,"lat":-27.077215},{"nome":"Lindóia do Sul","uf":"SC","lon":-52.068955,"lat":-27.054472},{"nome":"Concórdia","uf":"SC","lon":-52.025962,"lat":-27.233461},{"nome":"Vargeão","uf":"SC","lon":-52.154907,"lat":-26.862088},{"nome":"Passos Maia","uf":"SC","lon":-52.056768,"lat":-26.782945},{"nome":"Ponte Serrada","uf":"SC","lon":-52.011250,"lat":-26.873278},{"nome":"Bom Jesus","uf":"SC","lon":-52.391900,"lat":-26.732595},{"nome":"Ouro Verde","uf":"SC","lon":-52.310845,"lat":-26.692027},{"nome":"Abelardo Luz","uf":"SC","lon":-52.322881,"lat":-26.571585},{"nome":"Clevelândia","uf":"PR","lon":-52.350794,"lat":-26.404288},{"nome":"Palmas","uf":"PR","lon":-51.988812,"lat":-26.483868},{"nome":"Coronel Domingos Soares","uf":"PR","lon":-52.035650,"lat":-26.227684},{"nome":"Presidente Castello Branco","uf":"SC","lon":-51.803342,"lat":-27.224778},{"nome":"Irani","uf":"SC","lon":-51.901204,"lat":-27.028684},{"nome":"Jaborá","uf":"SC","lon":-51.727899,"lat":-27.178233},{"nome":"Vargem Bonita","uf":"SC","lon":-51.740238,"lat":-27.005456},{"nome":"Catanduvas","uf":"SC","lon":-51.660158,"lat":-27.068972},{"nome":"Lacerdópolis","uf":"SC","lon":-51.557660,"lat":-27.257941},{"nome":"Joaçaba","uf":"SC","lon":-51.510788,"lat":-27.172105},{"nome":"Herval d'Oeste","uf":"SC","lon":-51.491728,"lat":-27.190300},{"nome":"Luzerna","uf":"SC","lon":-51.468221,"lat":-27.130363},{"nome":"Treze Tílias","uf":"SC","lon":-51.408444,"lat":-27.002604},{"nome":"Água Doce","uf":"SC","lon":-51.552812,"lat":-26.998452},{"nome":"Salto Veloso","uf":"SC","lon":-51.404337,"lat":-26.902991},{"nome":"Honório Serpa","uf":"PR","lon":-52.384839,"lat":-26.139021},{"nome":"Mangueirinha","uf":"PR","lon":-52.174275,"lat":-25.942102},{"nome":"Reserva do Iguaçu","uf":"PR","lon":-52.027215,"lat":-25.831905},{"nome":"Porto Barreiro","uf":"PR","lon":-52.406744,"lat":-25.547696},{"nome":"Laranjeiras do Sul","uf":"PR","lon":-52.410854,"lat":-25.407672},{"nome":"Virmond","uf":"PR","lon":-52.198715,"lat":-25.382911},{"nome":"Foz do Jordão","uf":"PR","lon":-52.118829,"lat":-25.737094},{"nome":"Candói","uf":"PR","lon":-52.040876,"lat":-25.575847},{"nome":"Cantagalo","uf":"PR","lon":-52.119818,"lat":-25.373359},{"nome":"Goioxim","uf":"PR","lon":-51.991091,"lat":-25.192652},{"nome":"Pinhão","uf":"PR","lon":-51.653595,"lat":-25.694388},{"nome":"Bituruna","uf":"PR","lon":-51.551792,"lat":-26.160746},{"nome":"Guarapuava","uf":"PR","lon":-51.462317,"lat":-25.390237},{"nome":"Ibicaré","uf":"SC","lon":-51.368101,"lat":-27.088141},{"nome":"Ibiam","uf":"SC","lon":-51.235154,"lat":-27.184658},{"nome":"Tangará","uf":"SC","lon":-51.247253,"lat":-27.099576},{"nome":"Pinheiro Preto","uf":"SC","lon":-51.224249,"lat":-27.048318},{"nome":"Iomerê","uf":"SC","lon":-51.244227,"lat":-27.001920},{"nome":"Videira","uf":"SC","lon":-51.154274,"lat":-27.008624},{"nome":"Arroio Trinta","uf":"SC","lon":-51.340719,"lat":-26.925655},{"nome":"Macieira","uf":"SC","lon":-51.370510,"lat":-26.855232},{"nome":"Monte Carlo","uf":"SC","lon":-50.980785,"lat":-27.223916},{"nome":"Fraiburgo","uf":"SC","lon":-50.919978,"lat":-27.023288},{"nome":"Rio das Antas","uf":"SC","lon":-51.067414,"lat":-26.894615},{"nome":"Pérola","uf":"PR","lon":-53.683353,"lat":-23.803898},{"nome":"Xambrê","uf":"PR","lon":-53.488430,"lat":-23.736409},{"nome":"Vila Alta","uf":"PR","lon":-53.728537,"lat":-23.508137},{"nome":"Icaraíma","uf":"PR","lon":-53.614979,"lat":-23.394354},{"nome":"Querência do Norte","uf":"PR","lon":-53.483022,"lat":-23.083758},{"nome":"Cascavel","uf":"PR","lon":-53.459005,"lat":-24.957301},{"nome":"Corbélia","uf":"PR","lon":-53.300576,"lat":-24.797122},{"nome":"Ibema","uf":"PR","lon":-53.014616,"lat":-25.111335},{"nome":"Campo Bonito","uf":"PR","lon":-52.993933,"lat":-25.029445},{"nome":"Braganey","uf":"PR","lon":-53.121787,"lat":-24.817340},{"nome":"Anahy","uf":"PR","lon":-53.133235,"lat":-24.644865},{"nome":"Iguatu","uf":"PR","lon":-53.082724,"lat":-24.715277},{"nome":"Jesuítas","uf":"PR","lon":-53.384920,"lat":-24.383918},{"nome":"Iracema do Oeste","uf":"PR","lon":-53.352790,"lat":-24.426155},{"nome":"Cafelândia","uf":"PR","lon":-53.320705,"lat":-24.618862},{"nome":"Nova Aurora","uf":"PR","lon":-53.257449,"lat":-24.528859},{"nome":"Formosa do Oeste","uf":"PR","lon":-53.311378,"lat":-24.295097},{"nome":"Ubiratã","uf":"PR","lon":-52.986485,"lat":-24.539292},{"nome":"Quarto Centenário","uf":"PR","lon":-53.075884,"lat":-24.277499},{"nome":"Goioerê","uf":"PR","lon":-53.024842,"lat":-24.183481},{"nome":"Guaraniaçu","uf":"PR","lon":-52.875531,"lat":-25.096822},{"nome":"Altamira do Paraná","uf":"PR","lon":-52.712829,"lat":-24.798293},{"nome":"Diamante do Sul","uf":"PR","lon":-52.676782,"lat":-25.035007},{"nome":"Nova Cantu","uf":"PR","lon":-52.566078,"lat":-24.672324},{"nome":"Laranjal","uf":"PR","lon":-52.470041,"lat":-24.886153},{"nome":"Juranda","uf":"PR","lon":-52.841344,"lat":-24.420866},{"nome":"Campina da Lagoa","uf":"PR","lon":-52.797590,"lat":-24.589323},{"nome":"Rancho Alegre D'Oeste","uf":"PR","lon":-52.949883,"lat":-24.303548},{"nome":"Boa Esperança","uf":"PR","lon":-52.787560,"lat":-24.246738},{"nome":"Janiópolis","uf":"PR","lon":-52.778360,"lat":-24.140124},{"nome":"Mamborê","uf":"PR","lon":-52.527119,"lat":-24.316951},{"nome":"Alto Piquiri","uf":"PR","lon":-53.440045,"lat":-24.022427},{"nome":"Perobal","uf":"PR","lon":-53.409838,"lat":-23.894861},{"nome":"Umuarama","uf":"PR","lon":-53.320110,"lat":-23.765634},{"nome":"Mariluz","uf":"PR","lon":-53.143242,"lat":-24.008888},{"nome":"Moreira Sales","uf":"PR","lon":-53.005640,"lat":-24.052657},{"nome":"Maria Helena","uf":"PR","lon":-53.205333,"lat":-23.615754},{"nome":"Cruzeiro do Oeste","uf":"PR","lon":-53.077442,"lat":-23.779943},{"nome":"Ivaté","uf":"PR","lon":-53.368705,"lat":-23.407206},{"nome":"Douradina","uf":"PR","lon":-53.291794,"lat":-23.380720},{"nome":"Nova Olímpia","uf":"PR","lon":-53.089799,"lat":-23.470252},{"nome":"Araruna","uf":"PR","lon":-52.502101,"lat":-23.931500},{"nome":"Cianorte","uf":"PR","lon":-52.605444,"lat":-23.659859},{"nome":"Terra Boa","uf":"PR","lon":-52.447002,"lat":-23.768329},{"nome":"Jussara","uf":"PR","lon":-52.469310,"lat":-23.621931},{"nome":"Coxim","uf":"MS","lon":-54.750991,"lat":-18.501299},{"nome":"Pedro Gomes","uf":"MS","lon":-54.550663,"lat":-18.099622},{"nome":"Sonora","uf":"MS","lon":-54.755112,"lat":-17.569775},{"nome":"Itaipulândia","uf":"PR","lon":-54.300102,"lat":-25.136623},{"nome":"Santa Helena","uf":"PR","lon":-54.336010,"lat":-24.858494},{"nome":"Missal","uf":"PR","lon":-54.247664,"lat":-25.091855},{"nome":"Ramilândia","uf":"PR","lon":-54.023015,"lat":-25.119472},{"nome":"Diamante D'Oeste","uf":"PR","lon":-54.105157,"lat":-24.941858},{"nome":"Entre Rios do Oeste","uf":"PR","lon":-54.238507,"lat":-24.704210},{"nome":"São José das Palmeiras","uf":"PR","lon":-54.057225,"lat":-24.836883},{"nome":"Pato Bragado","uf":"PR","lon":-54.228115,"lat":-24.624625},{"nome":"Mercedes","uf":"PR","lon":-54.161826,"lat":-24.453791},{"nome":"Marechal Cândido Rondon","uf":"PR","lon":-54.056115,"lat":-24.557891},{"nome":"Terra Roxa","uf":"PR","lon":-54.098816,"lat":-24.157455},{"nome":"Vera Cruz do Oeste","uf":"PR","lon":-53.877096,"lat":-25.057688},{"nome":"Céu Azul","uf":"PR","lon":-53.841473,"lat":-25.148876},{"nome":"São Pedro do Iguaçu","uf":"PR","lon":-53.852141,"lat":-24.937311},{"nome":"Ouro Verde do Oeste","uf":"PR","lon":-53.904303,"lat":-24.793258},{"nome":"Toledo","uf":"PR","lon":-53.741177,"lat":-24.724641},{"nome":"Santa Tereza do Oeste","uf":"PR","lon":-53.627417,"lat":-25.054316},{"nome":"Quatro Pontes","uf":"PR","lon":-53.975885,"lat":-24.575152},{"nome":"Nova Santa Rosa","uf":"PR","lon":-53.955249,"lat":-24.469293},{"nome":"Maripá","uf":"PR","lon":-53.828641,"lat":-24.419978},{"nome":"Palotina","uf":"PR","lon":-53.840422,"lat":-24.286784},{"nome":"Tupãssi","uf":"PR","lon":-53.510510,"lat":-24.587887},{"nome":"Assis Chateaubriand","uf":"PR","lon":-53.521327,"lat":-24.416826},{"nome":"Brasilândia do Sul","uf":"PR","lon":-53.527527,"lat":-24.197762},{"nome":"Japorã","uf":"MS","lon":-54.405946,"lat":-23.890325},{"nome":"Andrelândia","uf":"MG","lon":-44.311690,"lat":-21.741088},{"nome":"Arantina","uf":"MG","lon":-44.255519,"lat":-21.910171},{"nome":"Bom Jardim de Minas","uf":"MG","lon":-44.188498,"lat":-21.947875},{"nome":"Santana do Garambéu","uf":"MG","lon":-44.105044,"lat":-21.598344},{"nome":"Madre de Deus de Minas","uf":"MG","lon":-44.328730,"lat":-21.483017},{"nome":"Conceição da Barra de Minas","uf":"MG","lon":-44.472901,"lat":-21.131558},{"nome":"Ritápolis","uf":"MG","lon":-44.320435,"lat":-21.027564},{"nome":"Piedade do Rio Grande","uf":"MG","lon":-44.193834,"lat":-21.469021},{"nome":"São João del Rei","uf":"MG","lon":-44.252646,"lat":-21.131054},{"nome":"Santa Cruz de Minas","uf":"MG","lon":-44.220251,"lat":-21.124148},{"nome":"Tiradentes","uf":"MG","lon":-44.174421,"lat":-21.110232},{"nome":"Coronel Xavier Chaves","uf":"MG","lon":-44.220600,"lat":-21.027724},{"nome":"Prados","uf":"MG","lon":-44.077798,"lat":-21.059748},{"nome":"Itaguaí","uf":"RJ","lon":-43.779821,"lat":-22.863566},{"nome":"Piraí","uf":"RJ","lon":-43.908071,"lat":-22.621497},{"nome":"Seropédica","uf":"RJ","lon":-43.715482,"lat":-22.752584},{"nome":"Japeri","uf":"RJ","lon":-43.660228,"lat":-22.643502},{"nome":"Jaupaci","uf":"GO","lon":-50.950766,"lat":-16.177289},{"nome":"Santa Fé de Goiás","uf":"GO","lon":-51.103706,"lat":-15.766426},{"nome":"Jussara","uf":"GO","lon":-50.866818,"lat":-15.865877},{"nome":"Ivolândia","uf":"GO","lon":-50.792076,"lat":-16.599526},{"nome":"Moiporá","uf":"GO","lon":-50.739040,"lat":-16.543374},{"nome":"Cachoeira de Goiás","uf":"GO","lon":-50.646041,"lat":-16.663516},{"nome":"Aurilândia","uf":"GO","lon":-50.464123,"lat":-16.677260},{"nome":"São Luís de Montes Belos","uf":"GO","lon":-50.372628,"lat":-16.521064},{"nome":"Córrego do Ouro","uf":"GO","lon":-50.550301,"lat":-16.291774},{"nome":"Almeirim","uf":"PA","lon":-52.581573,"lat":-1.520968},{"nome":"Laranjal do Jari","uf":"AP","lon":-52.452962,"lat":-0.804911},{"nome":"Nova Veneza","uf":"SC","lon":-49.505541,"lat":-28.633772},{"nome":"Siderópolis","uf":"SC","lon":-49.431423,"lat":-28.595501},{"nome":"Itaiópolis","uf":"SC","lon":-49.909200,"lat":-26.338975},{"nome":"Rio do Oeste","uf":"SC","lon":-49.798896,"lat":-27.195155},{"nome":"Laurentino","uf":"SC","lon":-49.733119,"lat":-27.217295},{"nome":"Rio do Sul","uf":"SC","lon":-49.643016,"lat":-27.215596},{"nome":"Presidente Getúlio","uf":"SC","lon":-49.624609,"lat":-27.047430},{"nome":"Wenceslau Braz","uf":"PR","lon":-49.803201,"lat":-23.874217},{"nome":"Fartura","uf":"SP","lon":-49.512403,"lat":-23.391643},{"nome":"Taguaí","uf":"SP","lon":-49.402377,"lat":-23.445242},{"nome":"Tejupá","uf":"SP","lon":-49.372244,"lat":-23.342458},{"nome":"Sarutaiá","uf":"SP","lon":-49.476259,"lat":-23.272103},{"nome":"Piraju","uf":"SP","lon":-49.380335,"lat":-23.198066},{"nome":"Tunas do Paraná","uf":"PR","lon":-49.087889,"lat":-24.973084},{"nome":"Cerro Azul","uf":"PR","lon":-49.253626,"lat":-24.822128},{"nome":"Adrianópolis","uf":"PR","lon":-48.992164,"lat":-24.660607},{"nome":"Ribeira","uf":"SP","lon":-49.004409,"lat":-24.651710},{"nome":"Itapirapuã Paulista","uf":"SP","lon":-49.166151,"lat":-24.572033},{"nome":"Barra do Chapéu","uf":"SP","lon":-49.023784,"lat":-24.472203},{"nome":"Bom Sucesso de Itararé","uf":"SP","lon":-49.145104,"lat":-24.315511},{"nome":"Itaóca","uf":"SP","lon":-48.841285,"lat":-24.639252},{"nome":"Apiaí","uf":"SP","lon":-48.844271,"lat":-24.510819},{"nome":"Nova Campina","uf":"SP","lon":-48.902179,"lat":-24.122367},{"nome":"Ribeirão Branco","uf":"SP","lon":-48.763545,"lat":-24.220580},{"nome":"Barra do Turvo","uf":"SP","lon":-48.501260,"lat":-24.759035},{"nome":"Estrela do Sul","uf":"MG","lon":-47.695643,"lat":-18.739940},{"nome":"Monte Carmelo","uf":"MG","lon":-47.491228,"lat":-18.730245},{"nome":"Douradoquara","uf":"MG","lon":-47.599310,"lat":-18.433784},{"nome":"Abadia dos Dourados","uf":"MG","lon":-47.391623,"lat":-18.483101},{"nome":"Coromandel","uf":"MG","lon":-47.193348,"lat":-18.473364},{"nome":"Davinópolis","uf":"GO","lon":-47.556795,"lat":-18.150084},{"nome":"Ipameri","uf":"GO","lon":-48.158118,"lat":-17.721544},{"nome":"Urutaí","uf":"GO","lon":-48.201481,"lat":-17.465097},{"nome":"Campo Alegre de Goiás","uf":"GO","lon":-47.776815,"lat":-17.636346},{"nome":"Guimarânia","uf":"MG","lon":-46.790145,"lat":-18.842460},{"nome":"Lagamar","uf":"MG","lon":-46.806343,"lat":-18.175918},{"nome":"Vazante","uf":"MG","lon":-46.908826,"lat":-17.982732},{"nome":"Lagoa Formosa","uf":"MG","lon":-46.401236,"lat":-18.771489},{"nome":"Patos de Minas","uf":"MG","lon":-46.501268,"lat":-18.569938},{"nome":"Presidente Olegário","uf":"MG","lon":-46.416502,"lat":-18.409610},{"nome":"Lagoa Grande","uf":"MG","lon":-46.516519,"lat":-17.832265},{"nome":"Guarda-Mor","uf":"MG","lon":-47.099756,"lat":-17.767307},{"nome":"Paracatu","uf":"MG","lon":-46.871064,"lat":-17.225166},{"nome":"São Sebastião da Vargem Alegre","uf":"MG","lon":-42.634672,"lat":-21.073656},{"nome":"Rosário da Limeira","uf":"MG","lon":-42.511196,"lat":-20.981227},{"nome":"Cantagalo","uf":"RJ","lon":-42.366425,"lat":-21.979736},{"nome":"Macuco","uf":"RJ","lon":-42.253288,"lat":-21.981345},{"nome":"Estrela Dalva","uf":"MG","lon":-42.457430,"lat":-21.741231},{"nome":"Pirapetinga","uf":"MG","lon":-42.343390,"lat":-21.655434},{"nome":"São Sebastião do Alto","uf":"RJ","lon":-42.132816,"lat":-21.957792},{"nome":"Santa Maria Madalena","uf":"RJ","lon":-42.009845,"lat":-21.954660},{"nome":"Itaocara","uf":"RJ","lon":-42.075793,"lat":-21.674801},{"nome":"Santo Antônio de Pádua","uf":"RJ","lon":-42.183157,"lat":-21.541038},{"nome":"Aperibé","uf":"RJ","lon":-42.101661,"lat":-21.625231},{"nome":"Palma","uf":"MG","lon":-42.312285,"lat":-21.374776},{"nome":"Barão de Monte Alto","uf":"MG","lon":-42.237185,"lat":-21.244403},{"nome":"Muriaé","uf":"MG","lon":-42.369304,"lat":-21.129965},{"nome":"Patrocínio do Muriaé","uf":"MG","lon":-42.212491,"lat":-21.154387},{"nome":"Miracema","uf":"RJ","lon":-42.193832,"lat":-21.414848},{"nome":"São José de Ubá","uf":"RJ","lon":-41.951058,"lat":-21.366066},{"nome":"Laje do Muriaé","uf":"RJ","lon":-42.127117,"lat":-21.209073},{"nome":"Santana do Riacho","uf":"MG","lon":-43.721950,"lat":-19.166236},{"nome":"Bom Jesus do Amparo","uf":"MG","lon":-43.478225,"lat":-19.705430},{"nome":"São Gonçalo do Rio Abaixo","uf":"MG","lon":-43.365987,"lat":-19.822100},{"nome":"Itambé do Mato Dentro","uf":"MG","lon":-43.318250,"lat":-19.415761},{"nome":"João Monlevade","uf":"MG","lon":-43.173463,"lat":-19.812646},{"nome":"Bela Vista de Minas","uf":"MG","lon":-43.092164,"lat":-19.830210},{"nome":"Nova Era","uf":"MG","lon":-43.033267,"lat":-19.757738},{"nome":"Itabira","uf":"MG","lon":-43.231230,"lat":-19.623936},{"nome":"Santa Maria de Itabira","uf":"MG","lon":-43.106446,"lat":-19.443100},{"nome":"Morro do Pilar","uf":"MG","lon":-43.379465,"lat":-19.223625},{"nome":"Santo Antônio do Rio Abaixo","uf":"MG","lon":-43.260414,"lat":-19.237366},{"nome":"Conceição do Mato Dentro","uf":"MG","lon":-43.422082,"lat":-19.034410},{"nome":"Dom Joaquim","uf":"MG","lon":-43.254382,"lat":-18.961036},{"nome":"Passabém","uf":"MG","lon":-43.138332,"lat":-19.350917},{"nome":"São Sebastião do Rio Preto","uf":"MG","lon":-43.175670,"lat":-19.295906},{"nome":"Ferros","uf":"MG","lon":-43.019232,"lat":-19.234309},{"nome":"Carmésia","uf":"MG","lon":-43.138248,"lat":-19.087718},{"nome":"Nova Veneza","uf":"GO","lon":-49.316789,"lat":-16.369518},{"nome":"Itaberaí","uf":"GO","lon":-49.806034,"lat":-16.020551},{"nome":"Itauçu","uf":"GO","lon":-49.610929,"lat":-16.202899},{"nome":"Taquaral de Goiás","uf":"GO","lon":-49.603859,"lat":-16.052057},{"nome":"Itaguari","uf":"GO","lon":-49.607084,"lat":-15.918044},{"nome":"Itaguaru","uf":"GO","lon":-49.635375,"lat":-15.756470},{"nome":"Santa Rosa de Goiás","uf":"GO","lon":-49.495326,"lat":-16.083983},{"nome":"Petrolina de Goiás","uf":"GO","lon":-49.336371,"lat":-16.096849},{"nome":"Jesúpolis","uf":"GO","lon":-49.373942,"lat":-15.948362},{"nome":"Uruana","uf":"GO","lon":-49.686137,"lat":-15.499323},{"nome":"Carmo do Rio Verde","uf":"GO","lon":-49.707975,"lat":-15.354914},{"nome":"Ceres","uf":"GO","lon":-49.600006,"lat":-15.306109},{"nome":"Rialma","uf":"GO","lon":-49.581399,"lat":-15.314482},{"nome":"Rianápolis","uf":"GO","lon":-49.511399,"lat":-15.445649},{"nome":"Santa Isabel","uf":"GO","lon":-49.425931,"lat":-15.295849},{"nome":"Rubiataba","uf":"GO","lon":-49.804792,"lat":-15.161744},{"nome":"Nova Glória","uf":"GO","lon":-49.573713,"lat":-15.144957},{"nome":"Itapaci","uf":"GO","lon":-49.551122,"lat":-14.952235},{"nome":"Iporã","uf":"PR","lon":-53.706031,"lat":-24.008349},{"nome":"Cafezal do Sul","uf":"PR","lon":-53.512418,"lat":-23.900508},{"nome":"Cidade Gaúcha","uf":"PR","lon":-52.943575,"lat":-23.377186},{"nome":"Indianópolis","uf":"PR","lon":-52.698865,"lat":-23.476234},{"nome":"Rondon","uf":"PR","lon":-52.765877,"lat":-23.411958},{"nome":"Guaporema","uf":"PR","lon":-52.778605,"lat":-23.340218},{"nome":"Mirador","uf":"PR","lon":-52.776081,"lat":-23.254951},{"nome":"Amaporã","uf":"PR","lon":-52.786597,"lat":-23.094272},{"nome":"São Tomé","uf":"PR","lon":-52.590125,"lat":-23.534946},{"nome":"São Manoel do Paraná","uf":"PR","lon":-52.645376,"lat":-23.394137},{"nome":"Japurá","uf":"PR","lon":-52.555720,"lat":-23.469273},{"nome":"Paraíso do Norte","uf":"PR","lon":-52.605429,"lat":-23.282420},{"nome":"Nova Aliança do Ivaí","uf":"PR","lon":-52.603244,"lat":-23.176271},{"nome":"São Carlos do Ivaí","uf":"PR","lon":-52.476143,"lat":-23.315828},{"nome":"Tamboara","uf":"PR","lon":-52.474272,"lat":-23.203558},{"nome":"Paranavaí","uf":"PR","lon":-52.461724,"lat":-23.081650},{"nome":"Naviraí","uf":"MS","lon":-54.199465,"lat":-23.061810},{"nome":"Fátima do Sul","uf":"MS","lon":-54.513069,"lat":-22.378924},{"nome":"Vicentina","uf":"MS","lon":-54.441507,"lat":-22.409801},{"nome":"Jateí","uf":"MS","lon":-54.307934,"lat":-22.480633},{"nome":"Santa Isabel do Ivaí","uf":"PR","lon":-53.198890,"lat":-23.002482},{"nome":"Loanda","uf":"PR","lon":-53.136216,"lat":-22.923194},{"nome":"Marilena","uf":"PR","lon":-53.040239,"lat":-22.733552},{"nome":"Nova Londrina","uf":"PR","lon":-52.986770,"lat":-22.763931},{"nome":"Rosana","uf":"SP","lon":-53.060296,"lat":-22.578173},{"nome":"Taquarussu","uf":"MS","lon":-53.351891,"lat":-22.489797},{"nome":"Batayporã","uf":"MS","lon":-53.270488,"lat":-22.294444},{"nome":"Nova Andradina","uf":"MS","lon":-53.343715,"lat":-22.237971},{"nome":"Planaltina do Paraná","uf":"PR","lon":-52.916242,"lat":-23.010146},{"nome":"Itaúna do Sul","uf":"PR","lon":-52.887395,"lat":-22.728942},{"nome":"Diamante do Norte","uf":"PR","lon":-52.861662,"lat":-22.654967},{"nome":"Guairaçá","uf":"PR","lon":-52.690625,"lat":-22.931978},{"nome":"Terra Rica","uf":"PR","lon":-52.618780,"lat":-22.711101},{"nome":"Euclides da Cunha Paulista","uf":"SP","lon":-52.592779,"lat":-22.554520},{"nome":"Anaurilândia","uf":"MS","lon":-52.719056,"lat":-22.185169},{"nome":"Santa Rita do Pardo","uf":"MS","lon":-52.833338,"lat":-21.301604},{"nome":"Marquinho","uf":"PR","lon":-52.249676,"lat":-25.112000},{"nome":"Palmital","uf":"PR","lon":-52.202854,"lat":-24.885301},{"nome":"Mato Rico","uf":"PR","lon":-52.145440,"lat":-24.699538},{"nome":"Roncador","uf":"PR","lon":-52.271569,"lat":-24.595795},{"nome":"Luiziana","uf":"PR","lon":-52.269022,"lat":-24.285284},{"nome":"Iretama","uf":"PR","lon":-52.101161,"lat":-24.425290},{"nome":"Nova Tebas","uf":"PR","lon":-51.945357,"lat":-24.437958},{"nome":"Godoy Moreira","uf":"PR","lon":-51.924636,"lat":-24.172980},{"nome":"Campina do Simão","uf":"PR","lon":-51.823710,"lat":-25.080171},{"nome":"Santa Maria do Oeste","uf":"PR","lon":-51.869564,"lat":-24.937701},{"nome":"Boa Ventura de São Roque","uf":"PR","lon":-51.627612,"lat":-24.868797},{"nome":"Pitanga","uf":"PR","lon":-51.759645,"lat":-24.758773},{"nome":"Turvo","uf":"PR","lon":-51.528223,"lat":-25.043671},{"nome":"Manoel Ribas","uf":"PR","lon":-51.665822,"lat":-24.514363},{"nome":"Arapuã","uf":"PR","lon":-51.785637,"lat":-24.313181},{"nome":"Ivaiporã","uf":"PR","lon":-51.675426,"lat":-24.248533},{"nome":"Jardim Alegre","uf":"PR","lon":-51.690197,"lat":-24.180913},{"nome":"Ariranha do Ivaí","uf":"PR","lon":-51.583935,"lat":-24.385708},{"nome":"Grandes Rios","uf":"PR","lon":-51.509378,"lat":-24.146606},{"nome":"Campo Mourão","uf":"PR","lon":-52.378020,"lat":-24.046329},{"nome":"Peabiru","uf":"PR","lon":-52.343107,"lat":-23.914013},{"nome":"Engenheiro Beltrão","uf":"PR","lon":-52.265877,"lat":-23.797028},{"nome":"Ivatuba","uf":"PR","lon":-52.220272,"lat":-23.618722},{"nome":"Corumbataí do Sul","uf":"PR","lon":-52.117660,"lat":-24.100956},{"nome":"Barbosa Ferraz","uf":"PR","lon":-52.003963,"lat":-24.033382},{"nome":"Fênix","uf":"PR","lon":-51.980522,"lat":-23.913547},{"nome":"Quinta do Sol","uf":"PR","lon":-52.130908,"lat":-23.853272},{"nome":"Floresta","uf":"PR","lon":-52.080656,"lat":-23.603054},{"nome":"Itambé","uf":"PR","lon":-51.991236,"lat":-23.660056},{"nome":"Doutor Camargo","uf":"PR","lon":-52.217810,"lat":-23.558152},{"nome":"São Jorge do Ivaí","uf":"PR","lon":-52.292907,"lat":-23.433592},{"nome":"Ourizona","uf":"PR","lon":-52.196380,"lat":-23.405342},{"nome":"Floraí","uf":"PR","lon":-52.302885,"lat":-23.317808},{"nome":"Alto Paraná","uf":"PR","lon":-52.318893,"lat":-23.131247},{"nome":"Nova Esperança","uf":"PR","lon":-52.203139,"lat":-23.182020},{"nome":"Paiçandu","uf":"PR","lon":-52.046013,"lat":-23.455534},{"nome":"Mandaguaçu","uf":"PR","lon":-52.094369,"lat":-23.345766},{"nome":"Maringá","uf":"PR","lon":-51.933298,"lat":-23.420545},{"nome":"Presidente Castelo Branco","uf":"PR","lon":-52.153563,"lat":-23.278233},{"nome":"Uniflor","uf":"PR","lon":-52.157307,"lat":-23.086830},{"nome":"Brasilândia","uf":"MS","lon":-52.036519,"lat":-21.254428},{"nome":"Presidente Venceslau","uf":"SP","lon":-51.844744,"lat":-21.873233},{"nome":"Santo Anastácio","uf":"SP","lon":-51.652662,"lat":-21.974662},{"nome":"Piquerobi","uf":"SP","lon":-51.728164,"lat":-21.874671},{"nome":"Presidente Bernardes","uf":"SP","lon":-51.556507,"lat":-22.008198},{"nome":"Ribeirão dos Índios","uf":"SP","lon":-51.610343,"lat":-21.838201},{"nome":"Alfredo Marcondes","uf":"SP","lon":-51.413956,"lat":-21.952700},{"nome":"Emilianópolis","uf":"SP","lon":-51.483168,"lat":-21.831436},{"nome":"Santo Expedito","uf":"SP","lon":-51.392894,"lat":-21.846657},{"nome":"Flora Rica","uf":"SP","lon":-51.382107,"lat":-21.672738},{"nome":"Chapadão do Céu","uf":"GO","lon":-52.548986,"lat":-18.407326},{"nome":"Alto Taquari","uf":"MT","lon":-53.279220,"lat":-17.824050},{"nome":"Alto Araguaia","uf":"MT","lon":-53.218125,"lat":-17.315324},{"nome":"Santa Rita do Araguaia","uf":"GO","lon":-53.201236,"lat":-17.326910},{"nome":"Araguainha","uf":"MT","lon":-53.031778,"lat":-16.857016},{"nome":"Mineiros","uf":"GO","lon":-52.553672,"lat":-17.565388},{"nome":"Portelândia","uf":"GO","lon":-52.679939,"lat":-17.355381},{"nome":"Uarini","uf":"AM","lon":-65.113298,"lat":-2.996087},{"nome":"Atalaia","uf":"PR","lon":-52.055096,"lat":-23.151721},{"nome":"Ângulo","uf":"PR","lon":-51.915356,"lat":-23.194609},{"nome":"Flórida","uf":"PR","lon":-51.954559,"lat":-23.084703},{"nome":"São Pedro do Ivaí","uf":"PR","lon":-51.856775,"lat":-23.863394},{"nome":"São João do Ivaí","uf":"PR","lon":-51.821544,"lat":-23.983281},{"nome":"Lunardelli","uf":"PR","lon":-51.736783,"lat":-24.082055},{"nome":"Lidianópolis","uf":"PR","lon":-51.650629,"lat":-24.109970},{"nome":"Kaloré","uf":"PR","lon":-51.668709,"lat":-23.818835},{"nome":"Bom Sucesso","uf":"PR","lon":-51.767056,"lat":-23.706313},{"nome":"Jandaia do Sul","uf":"PR","lon":-51.644819,"lat":-23.601089},{"nome":"Borrazópolis","uf":"PR","lon":-51.587507,"lat":-23.936607},{"nome":"Cruzmaltina","uf":"PR","lon":-51.456331,"lat":-24.013218},{"nome":"Marumbi","uf":"PR","lon":-51.640374,"lat":-23.705764},{"nome":"Novo Itacolomi","uf":"PR","lon":-51.507890,"lat":-23.763080},{"nome":"Rio Bom","uf":"PR","lon":-51.412240,"lat":-23.760583},{"nome":"Marialva","uf":"PR","lon":-51.792802,"lat":-23.484316},{"nome":"Sarandi","uf":"PR","lon":-51.876016,"lat":-23.444117},{"nome":"Mandaguari","uf":"PR","lon":-51.671027,"lat":-23.544590},{"nome":"Iguaraçu","uf":"PR","lon":-51.825552,"lat":-23.194896},{"nome":"Astorga","uf":"PR","lon":-51.666777,"lat":-23.231827},{"nome":"Munhoz de Melo","uf":"PR","lon":-51.773162,"lat":-23.146010},{"nome":"Cambira","uf":"PR","lon":-51.579152,"lat":-23.589018},{"nome":"Apucarana","uf":"PR","lon":-51.463486,"lat":-23.549961},{"nome":"Arapongas","uf":"PR","lon":-51.425920,"lat":-23.415296},{"nome":"Pitangueiras","uf":"PR","lon":-51.587277,"lat":-23.228134},{"nome":"Sabáudia","uf":"PR","lon":-51.555005,"lat":-23.315512},{"nome":"Jaguapitã","uf":"PR","lon":-51.534195,"lat":-23.110388},{"nome":"Ivaí","uf":"PR","lon":-50.857041,"lat":-25.006734},{"nome":"Cândido de Abreu","uf":"PR","lon":-51.337190,"lat":-24.564895},{"nome":"Rio Branco do Ivaí","uf":"PR","lon":-51.318684,"lat":-24.324449},{"nome":"Rosário do Ivaí","uf":"PR","lon":-51.272007,"lat":-24.268240},{"nome":"Ortigueira","uf":"PR","lon":-50.918508,"lat":-24.205811},{"nome":"Reserva","uf":"PR","lon":-50.846604,"lat":-24.649169},{"nome":"Ipiranga","uf":"PR","lon":-50.579378,"lat":-25.023769},{"nome":"Imbaú","uf":"PR","lon":-50.753269,"lat":-24.448010},{"nome":"Telêmaco Borba","uf":"PR","lon":-50.617585,"lat":-24.324520},{"nome":"Tibagi","uf":"PR","lon":-50.417587,"lat":-24.515316},{"nome":"Faxinal","uf":"PR","lon":-51.322665,"lat":-24.007671},{"nome":"Mauá da Serra","uf":"PR","lon":-51.227732,"lat":-23.898761},{"nome":"Marilândia do Sul","uf":"PR","lon":-51.313737,"lat":-23.742534},{"nome":"Califórnia","uf":"PR","lon":-51.357367,"lat":-23.656587},{"nome":"Tamarana","uf":"PR","lon":-51.099054,"lat":-23.720365},{"nome":"Rolândia","uf":"PR","lon":-51.365928,"lat":-23.310120},{"nome":"Cambé","uf":"PR","lon":-51.279832,"lat":-23.276575},{"nome":"Londrina","uf":"PR","lon":-51.169100,"lat":-23.303975},{"nome":"Ibiporã","uf":"PR","lon":-51.052243,"lat":-23.265941},{"nome":"Jataizinho","uf":"PR","lon":-50.977748,"lat":-23.257815},{"nome":"São Jerônimo da Serra","uf":"PR","lon":-50.747536,"lat":-23.721765},{"nome":"Sapopema","uf":"PR","lon":-50.580062,"lat":-23.907832},{"nome":"Curiúva","uf":"PR","lon":-50.457638,"lat":-24.036168},{"nome":"Figueira","uf":"PR","lon":-50.403068,"lat":-23.845542},{"nome":"Nova Santa Bárbara","uf":"PR","lon":-50.759798,"lat":-23.586534},{"nome":"Santa Cecília do Pavão","uf":"PR","lon":-50.783528,"lat":-23.520081},{"nome":"São Sebastião da Amoreira","uf":"PR","lon":-50.762536,"lat":-23.465640},{"nome":"Assaí","uf":"PR","lon":-50.845925,"lat":-23.369679},{"nome":"Santo Antônio do Paraíso","uf":"PR","lon":-50.645541,"lat":-23.496903},{"nome":"Uraí","uf":"PR","lon":-50.793873,"lat":-23.199997},{"nome":"Leópolis","uf":"PR","lon":-50.751085,"lat":-23.081781},{"nome":"Nova América da Colina","uf":"PR","lon":-50.716821,"lat":-23.330772},{"nome":"Cornélio Procópio","uf":"PR","lon":-50.649770,"lat":-23.182911},{"nome":"Congonhinhas","uf":"PR","lon":-50.556872,"lat":-23.549310},{"nome":"Nova Fátima","uf":"PR","lon":-50.566507,"lat":-23.432447},{"nome":"Ribeirão do Pinhal","uf":"PR","lon":-50.360145,"lat":-23.409068},{"nome":"Santa Mariana","uf":"PR","lon":-50.516728,"lat":-23.146520},{"nome":"Santa Amélia","uf":"PR","lon":-50.428765,"lat":-23.265421},{"nome":"Bandeirantes","uf":"PR","lon":-50.370407,"lat":-23.107788},{"nome":"São João do Caiuá","uf":"PR","lon":-52.341065,"lat":-22.853502},{"nome":"Santo Antônio do Caiuá","uf":"PR","lon":-52.344022,"lat":-22.735084},{"nome":"Inajá","uf":"PR","lon":-52.199499,"lat":-22.750929},{"nome":"Cruzeiro do Sul","uf":"PR","lon":-52.162210,"lat":-22.962440},{"nome":"Paranacity","uf":"PR","lon":-52.154946,"lat":-22.929713},{"nome":"Lobato","uf":"PR","lon":-51.952419,"lat":-23.005782},{"nome":"Colorado","uf":"PR","lon":-51.974301,"lat":-22.837422},{"nome":"Paranapoema","uf":"PR","lon":-52.090520,"lat":-22.641240},{"nome":"Jardim Olinda","uf":"PR","lon":-52.050298,"lat":-22.552255},{"nome":"Itaguajé","uf":"PR","lon":-51.967351,"lat":-22.618282},{"nome":"Teodoro Sampaio","uf":"SP","lon":-52.168175,"lat":-22.529936},{"nome":"Mirante do Paranapanema","uf":"SP","lon":-51.908350,"lat":-22.290427},{"nome":"Marabá Paulista","uf":"SP","lon":-51.961670,"lat":-22.106766},{"nome":"Santa Fé","uf":"PR","lon":-51.808014,"lat":-23.039993},{"nome":"Nossa Senhora das Graças","uf":"PR","lon":-51.797764,"lat":-22.912926},{"nome":"Guaraci","uf":"PR","lon":-51.650406,"lat":-22.969426},{"nome":"Santo Inácio","uf":"PR","lon":-51.796937,"lat":-22.695666},{"nome":"Santa Inês","uf":"PR","lon":-51.902385,"lat":-22.637595},{"nome":"Cafeara","uf":"PR","lon":-51.714195,"lat":-22.789050},{"nome":"Lupionópolis","uf":"PR","lon":-51.660085,"lat":-22.754987},{"nome":"Centenário do Sul","uf":"PR","lon":-51.597268,"lat":-22.818764},{"nome":"Miraselva","uf":"PR","lon":-51.484606,"lat":-22.965663},{"nome":"Prado Ferreira","uf":"PR","lon":-51.442883,"lat":-23.035698},{"nome":"Florestópolis","uf":"PR","lon":-51.388157,"lat":-22.862263},{"nome":"Sandovalina","uf":"SP","lon":-51.764822,"lat":-22.455099},{"nome":"Estrela do Norte","uf":"SP","lon":-51.663203,"lat":-22.485935},{"nome":"Narandiba","uf":"SP","lon":-51.527357,"lat":-22.405737},{"nome":"Tarabai","uf":"SP","lon":-51.562133,"lat":-22.301612},{"nome":"Anhumas","uf":"SP","lon":-51.389542,"lat":-22.293414},{"nome":"Pirapozinho","uf":"SP","lon":-51.497635,"lat":-22.271125},{"nome":"Álvares Machado","uf":"SP","lon":-51.472240,"lat":-22.076415},{"nome":"Sertanópolis","uf":"PR","lon":-51.039948,"lat":-23.057057},{"nome":"São Gabriel da Cachoeira","uf":"AM","lon":-67.084042,"lat":-0.119090},{"nome":"Araputanga","uf":"MT","lon":-58.342461,"lat":-15.464096},{"nome":"Reserva do Cabaçal","uf":"MT","lon":-58.458533,"lat":-15.074259},{"nome":"São José dos Quatro Marcos","uf":"MT","lon":-58.177217,"lat":-15.627584},{"nome":"Mirassol d'Oeste","uf":"MT","lon":-58.090996,"lat":-15.667801},{"nome":"Rio Branco","uf":"MT","lon":-58.125892,"lat":-15.248331},{"nome":"Lambari D'Oeste","uf":"MT","lon":-58.002856,"lat":-15.317213},{"nome":"Nova Brasilândia","uf":"MT","lon":-54.968527,"lat":-14.961215},{"nome":"Novo Mundo","uf":"MT","lon":-55.202950,"lat":-9.956159},{"nome":"Pacajá","uf":"PA","lon":-50.638625,"lat":-3.837314},{"nome":"Porto de Moz","uf":"PA","lon":-52.236071,"lat":-1.746906},{"nome":"Vitória do Jari","uf":"AP","lon":-52.424001,"lat":-0.938000},{"nome":"Gurupá","uf":"PA","lon":-51.633841,"lat":-1.414123},{"nome":"Portel","uf":"PA","lon":-50.819420,"lat":-1.936388},{"nome":"Melgaço","uf":"PA","lon":-50.714927,"lat":-1.803202},{"nome":"Breves","uf":"PA","lon":-50.479085,"lat":-1.680360},{"nome":"Mazagão","uf":"AP","lon":-51.289130,"lat":-0.113360},{"nome":"Santana","uf":"AP","lon":-51.172924,"lat":-0.045434},{"nome":"Afuá","uf":"PA","lon":-50.386130,"lat":-0.154874},{"nome":"Balneário Pinhal","uf":"RS","lon":-50.233655,"lat":-30.241938},{"nome":"Taquarivaí","uf":"SP","lon":-48.694769,"lat":-23.921116},{"nome":"Buri","uf":"SP","lon":-48.595811,"lat":-23.797689},{"nome":"Ribeirão Grande","uf":"SP","lon":-48.367931,"lat":-24.101140},{"nome":"Capão Bonito","uf":"SP","lon":-48.348222,"lat":-24.011265},{"nome":"Paranapanema","uf":"SP","lon":-48.721435,"lat":-23.386196},{"nome":"Itatinga","uf":"SP","lon":-48.615712,"lat":-23.104707},{"nome":"Campina do Monte Alegre","uf":"SP","lon":-48.475800,"lat":-23.589480},{"nome":"Angatuba","uf":"SP","lon":-48.413872,"lat":-23.491733},{"nome":"Pardinho","uf":"SP","lon":-48.367942,"lat":-23.084056},{"nome":"Bofete","uf":"SP","lon":-48.258203,"lat":-23.105543},{"nome":"Andirá","uf":"PR","lon":-50.230359,"lat":-23.053267},{"nome":"Barão de Melgaço","uf":"MT","lon":-55.962337,"lat":-16.206690},{"nome":"Santo Antônio do Leverger","uf":"MT","lon":-56.078752,"lat":-15.862409},{"nome":"Jangada","uf":"MT","lon":-56.491693,"lat":-15.235044},{"nome":"Várzea Grande","uf":"MT","lon":-56.132218,"lat":-15.645816},{"nome":"Acorizal","uf":"MT","lon":-56.363226,"lat":-15.194025},{"nome":"Rosário Oeste","uf":"MT","lon":-56.423570,"lat":-14.825938},{"nome":"Nobres","uf":"MT","lon":-56.328358,"lat":-14.719167},{"nome":"Chapada dos Guimarães","uf":"MT","lon":-55.749857,"lat":-15.464343},{"nome":"Rondonópolis","uf":"MT","lon":-54.637173,"lat":-16.467251},{"nome":"Juscimeira","uf":"MT","lon":-54.885894,"lat":-16.063307},{"nome":"São Pedro da Cipa","uf":"MT","lon":-54.917580,"lat":-16.010905},{"nome":"Anori","uf":"AM","lon":-61.657485,"lat":-3.746027},{"nome":"Beruri","uf":"AM","lon":-61.361620,"lat":-3.898736},{"nome":"Anamã","uf":"AM","lon":-61.396337,"lat":-3.566966},{"nome":"Caapiranga","uf":"AM","lon":-61.220557,"lat":-3.315372},{"nome":"Novo Airão","uf":"AM","lon":-60.943404,"lat":-2.636371},{"nome":"Careiro","uf":"AM","lon":-60.369046,"lat":-3.768027},{"nome":"Manacapuru","uf":"AM","lon":-60.621581,"lat":-3.290657},{"nome":"Manaquiri","uf":"AM","lon":-60.461239,"lat":-3.440784},{"nome":"Iranduba","uf":"AM","lon":-60.189953,"lat":-3.274792},{"nome":"Careiro da Várzea","uf":"AM","lon":-59.796390,"lat":-3.196979},{"nome":"Nova Olinda do Norte","uf":"AM","lon":-59.094040,"lat":-3.900367},{"nome":"Autazes","uf":"AM","lon":-59.125589,"lat":-3.585743},{"nome":"Rio Preto da Eva","uf":"AM","lon":-59.685793,"lat":-2.704497},{"nome":"Presidente Figueiredo","uf":"AM","lon":-60.023380,"lat":-2.029813},{"nome":"Porto Esperidião","uf":"MT","lon":-58.461925,"lat":-15.857026},{"nome":"Glória D'Oeste","uf":"MT","lon":-58.306121,"lat":-15.767592},{"nome":"Cáceres","uf":"MT","lon":-57.681798,"lat":-16.076414},{"nome":"Indiavaí","uf":"MT","lon":-58.580158,"lat":-15.492115},{"nome":"Salto do Céu","uf":"MT","lon":-58.131721,"lat":-15.130346},{"nome":"Poconé","uf":"MT","lon":-56.626099,"lat":-16.266037},{"nome":"Porto Estrela","uf":"MT","lon":-57.220403,"lat":-15.323517},{"nome":"Barra do Bugres","uf":"MT","lon":-57.187784,"lat":-15.070160},{"nome":"Biguaçu","uf":"SC","lon":-48.659790,"lat":-27.496004},{"nome":"Governador Celso Ramos","uf":"SC","lon":-48.557608,"lat":-27.317161},{"nome":"Mirim Doce","uf":"SC","lon":-50.078623,"lat":-27.197002},{"nome":"Rio do Campo","uf":"SC","lon":-50.136021,"lat":-26.945181},{"nome":"Taió","uf":"SC","lon":-49.994184,"lat":-27.121001},{"nome":"Pouso Redondo","uf":"SC","lon":-49.930098,"lat":-27.256725},{"nome":"Salete","uf":"SC","lon":-49.998811,"lat":-26.979780},{"nome":"Santa Terezinha","uf":"SC","lon":-50.009017,"lat":-26.781300},{"nome":"Vitor Meireles","uf":"SC","lon":-49.832787,"lat":-26.878152},{"nome":"Major Vieira","uf":"SC","lon":-50.326592,"lat":-26.370901},{"nome":"Monte Castelo","uf":"SC","lon":-50.232724,"lat":-26.460989},{"nome":"Papanduva","uf":"SC","lon":-50.141938,"lat":-26.377709},{"nome":"Benedito Novo","uf":"SC","lon":-49.359314,"lat":-26.780974},{"nome":"Doutor Pedrinho","uf":"SC","lon":-49.479495,"lat":-26.717370},{"nome":"Rio Negrinho","uf":"SC","lon":-49.517746,"lat":-26.259075},{"nome":"São Bento do Sul","uf":"SC","lon":-49.383077,"lat":-26.249542},{"nome":"Três Barras","uf":"SC","lon":-50.319692,"lat":-26.105632},{"nome":"Antônio Olinto","uf":"PR","lon":-50.197183,"lat":-25.980380},{"nome":"Mafra","uf":"SC","lon":-49.808624,"lat":-26.115935},{"nome":"São João do Triunfo","uf":"PR","lon":-50.294920,"lat":-25.682971},{"nome":"Porto Amazonas","uf":"PR","lon":-49.894591,"lat":-25.540002},{"nome":"Palmeira","uf":"PR","lon":-50.007027,"lat":-25.425716},{"nome":"Barra Bonita","uf":"SP","lon":-48.558349,"lat":-22.490859},{"nome":"Jaú","uf":"SP","lon":-48.559193,"lat":-22.293585},{"nome":"Itapuí","uf":"SP","lon":-48.719734,"lat":-22.232445},{"nome":"Bariri","uf":"SP","lon":-48.743828,"lat":-22.072955},{"nome":"Bocaina","uf":"SP","lon":-48.523044,"lat":-22.136538},{"nome":"Mineiros do Tietê","uf":"SP","lon":-48.450998,"lat":-22.412007},{"nome":"Dois Córregos","uf":"SP","lon":-48.381924,"lat":-22.367291},{"nome":"Dourado","uf":"SP","lon":-48.317823,"lat":-22.104436},{"nome":"Trabiju","uf":"SP","lon":-48.334168,"lat":-22.038783},{"nome":"Reginópolis","uf":"SP","lon":-49.226782,"lat":-21.891372},{"nome":"Iacanga","uf":"SP","lon":-49.030959,"lat":-21.889646},{"nome":"Borborema","uf":"SP","lon":-49.074089,"lat":-21.621368},{"nome":"Hortolândia","uf":"SP","lon":-47.214259,"lat":-22.852854},{"nome":"Santa Barbara d'Oeste","uf":"SP","lon":-47.414308,"lat":-22.755256},{"nome":"Americana","uf":"SP","lon":-47.333119,"lat":-22.737360},{"nome":"Limeira","uf":"SP","lon":-47.396987,"lat":-22.566050},{"nome":"Nova Odessa","uf":"SP","lon":-47.294059,"lat":-22.783186},{"nome":"Cosmópolis","uf":"SP","lon":-47.192578,"lat":-22.641906},{"nome":"Santa Gertrudes","uf":"SP","lon":-47.527160,"lat":-22.457229},{"nome":"Cordeirópolis","uf":"SP","lon":-47.451886,"lat":-22.477778},{"nome":"Rio Claro","uf":"SP","lon":-47.554632,"lat":-22.398378},{"nome":"Corumbataí","uf":"SP","lon":-47.621451,"lat":-22.221334},{"nome":"Analândia","uf":"SP","lon":-47.661939,"lat":-22.128917},{"nome":"Caldas Novas","uf":"GO","lon":-48.624579,"lat":-17.744060},{"nome":"Santa Cruz de Goiás","uf":"GO","lon":-48.480950,"lat":-17.315512},{"nome":"Palmelo","uf":"GO","lon":-48.426030,"lat":-17.325819},{"nome":"Pires do Rio","uf":"GO","lon":-48.276756,"lat":-17.301901},{"nome":"Cristianópolis","uf":"GO","lon":-48.703447,"lat":-17.198663},{"nome":"São Miguel do Passa Quatro","uf":"GO","lon":-48.661981,"lat":-17.058201},{"nome":"Orizona","uf":"GO","lon":-48.296410,"lat":-17.033356},{"nome":"Morro Agudo","uf":"SP","lon":-48.058084,"lat":-20.728828},{"nome":"Orlândia","uf":"SP","lon":-47.885205,"lat":-20.716925},{"nome":"Nova Monte Verde","uf":"MT","lon":-57.526052,"lat":-9.999982},{"nome":"Apiacás","uf":"MT","lon":-57.458677,"lat":-9.539809},{"nome":"Sorriso","uf":"MT","lon":-55.721051,"lat":-12.542527},{"nome":"Nova Canaã do Norte","uf":"MT","lon":-55.953001,"lat":-10.558000},{"nome":"Vera","uf":"MT","lon":-55.304497,"lat":-12.301659},{"nome":"Sinop","uf":"MT","lon":-55.509062,"lat":-11.860430},{"nome":"Santa Carmem","uf":"MT","lon":-55.226297,"lat":-11.912542},{"nome":"Feliz Natal","uf":"MT","lon":-54.922738,"lat":-12.384985},{"nome":"Itaúba","uf":"MT","lon":-55.276574,"lat":-11.061423},{"nome":"Colíder","uf":"MT","lon":-55.460981,"lat":-10.813453},{"nome":"Terra Nova do Norte","uf":"MT","lon":-55.231000,"lat":-10.517000},{"nome":"Cláudia","uf":"MT","lon":-54.883476,"lat":-11.507500},{"nome":"Paranaíta","uf":"MT","lon":-56.478623,"lat":-9.658348},{"nome":"Alta Floresta","uf":"MT","lon":-56.086704,"lat":-9.866745},{"nome":"Carlinda","uf":"MT","lon":-55.841671,"lat":-9.949118},{"nome":"Nova Guarita","uf":"MT","lon":-55.406062,"lat":-10.311992},{"nome":"Fazenda Nova","uf":"GO","lon":-50.778111,"lat":-16.183370},{"nome":"Novo Brasil","uf":"GO","lon":-50.711279,"lat":-16.031326},{"nome":"Itapirapuã","uf":"GO","lon":-50.609434,"lat":-15.820500},{"nome":"Buriti de Goiás","uf":"GO","lon":-50.430223,"lat":-16.179199},{"nome":"Britânia","uf":"GO","lon":-51.160206,"lat":-15.242760},{"nome":"Aruanã","uf":"GO","lon":-51.075008,"lat":-14.916604},{"nome":"Matrinchã","uf":"GO","lon":-50.745644,"lat":-15.434171},{"nome":"Faina","uf":"GO","lon":-50.362205,"lat":-15.447297},{"nome":"Araguapaz","uf":"GO","lon":-50.631511,"lat":-15.090853},{"nome":"Mozarlândia","uf":"GO","lon":-50.571321,"lat":-14.745705},{"nome":"Nova Xavantina","uf":"MT","lon":-52.350234,"lat":-14.677063},{"nome":"Água Boa","uf":"MT","lon":-52.160133,"lat":-14.051019},{"nome":"Guiratinga","uf":"MT","lon":-53.757490,"lat":-16.345979},{"nome":"Tesouro","uf":"MT","lon":-53.559032,"lat":-16.080932},{"nome":"Primavera do Leste","uf":"MT","lon":-54.281056,"lat":-15.543971},{"nome":"Ponte Branca","uf":"MT","lon":-52.836864,"lat":-16.758407},{"nome":"Ribeirãozinho","uf":"MT","lon":-52.692439,"lat":-16.485630},{"nome":"Torixoréu","uf":"MT","lon":-52.557097,"lat":-16.200591},{"nome":"Baliza","uf":"GO","lon":-52.539253,"lat":-16.196606},{"nome":"Novo São Joaquim","uf":"MT","lon":-53.019362,"lat":-14.905406},{"nome":"General Carneiro","uf":"MT","lon":-52.757375,"lat":-15.709447},{"nome":"Paranatinga","uf":"MT","lon":-54.052426,"lat":-14.426475},{"nome":"Campinápolis","uf":"MT","lon":-52.892979,"lat":-14.516182},{"nome":"Gaúcha do Norte","uf":"MT","lon":-53.080914,"lat":-13.244284},{"nome":"Doverlândia","uf":"GO","lon":-52.318860,"lat":-16.718819},{"nome":"Bom Jardim de Goiás","uf":"GO","lon":-52.172793,"lat":-16.206266},{"nome":"Pontal do Araguaia","uf":"MT","lon":-52.327296,"lat":-15.927383},{"nome":"Aragarças","uf":"GO","lon":-52.237231,"lat":-15.895460},{"nome":"Barra do Garças","uf":"MT","lon":-52.263953,"lat":-15.880412},{"nome":"Piranhas","uf":"GO","lon":-51.823472,"lat":-16.425807},{"nome":"Palestina de Goiás","uf":"GO","lon":-51.530885,"lat":-16.739221},{"nome":"Arenópolis","uf":"GO","lon":-51.556280,"lat":-16.383726},{"nome":"Araguaiana","uf":"MT","lon":-51.834112,"lat":-15.729144},{"nome":"Montes Claros de Goiás","uf":"GO","lon":-51.397878,"lat":-16.005946},{"nome":"Amorinópolis","uf":"GO","lon":-51.091930,"lat":-16.615094},{"nome":"Iporá","uf":"GO","lon":-51.118049,"lat":-16.439764},{"nome":"Israelândia","uf":"GO","lon":-50.908722,"lat":-16.314389},{"nome":"Diorama","uf":"GO","lon":-51.254332,"lat":-16.232936},{"nome":"Primeiro de Maio","uf":"PR","lon":-51.029251,"lat":-22.851714},{"nome":"Rancho Alegre","uf":"PR","lon":-50.914453,"lat":-23.067594},{"nome":"Iepê","uf":"SP","lon":-51.077881,"lat":-22.660165},{"nome":"Taciba","uf":"SP","lon":-51.288221,"lat":-22.386577},{"nome":"Regente Feijó","uf":"SP","lon":-51.305450,"lat":-22.218131},{"nome":"Indiana","uf":"SP","lon":-51.255467,"lat":-22.173779},{"nome":"Martinópolis","uf":"SP","lon":-51.170949,"lat":-22.146153},{"nome":"Rancharia","uf":"SP","lon":-50.893041,"lat":-22.226910},{"nome":"Sertaneja","uf":"PR","lon":-50.831656,"lat":-23.036095},{"nome":"Pedrinhas Paulista","uf":"SP","lon":-50.793287,"lat":-22.817378},{"nome":"Florínia","uf":"SP","lon":-50.732976,"lat":-22.902483},{"nome":"Cruzália","uf":"SP","lon":-50.790909,"lat":-22.737309},{"nome":"Maracaí","uf":"SP","lon":-50.671288,"lat":-22.614921},{"nome":"Itambaracá","uf":"PR","lon":-50.409654,"lat":-23.018113},{"nome":"Tarumã","uf":"SP","lon":-50.578620,"lat":-22.742873},{"nome":"Cândido Mota","uf":"SP","lon":-50.387326,"lat":-22.747093},{"nome":"Assis","uf":"SP","lon":-50.418307,"lat":-22.659957},{"nome":"João Ramalho","uf":"SP","lon":-50.769359,"lat":-22.247339},{"nome":"Quatá","uf":"SP","lon":-50.696605,"lat":-22.245590},{"nome":"Paraguaçu Paulista","uf":"SP","lon":-50.573160,"lat":-22.411369},{"nome":"Lutécia","uf":"SP","lon":-50.394007,"lat":-22.338378},{"nome":"Borá","uf":"SP","lon":-50.540919,"lat":-22.269627},{"nome":"Caiabu","uf":"SP","lon":-51.239408,"lat":-22.012719},{"nome":"Mariápolis","uf":"SP","lon":-51.182434,"lat":-21.795920},{"nome":"Irapuru","uf":"SP","lon":-51.347171,"lat":-21.568390},{"nome":"Pacaembu","uf":"SP","lon":-51.265366,"lat":-21.562661},{"nome":"Flórida Paulista","uf":"SP","lon":-51.172445,"lat":-21.612711},{"nome":"Pracinha","uf":"SP","lon":-51.086791,"lat":-21.849563},{"nome":"Sagres","uf":"SP","lon":-50.959381,"lat":-21.882320},{"nome":"Inúbia Paulista","uf":"SP","lon":-50.963268,"lat":-21.769471},{"nome":"Osvaldo Cruz","uf":"SP","lon":-50.879288,"lat":-21.796753},{"nome":"Adamantina","uf":"SP","lon":-51.073695,"lat":-21.682012},{"nome":"Lucélia","uf":"SP","lon":-51.021511,"lat":-21.718203},{"nome":"Salmourão","uf":"SP","lon":-50.861366,"lat":-21.626729},{"nome":"Murutinga do Sul","uf":"SP","lon":-51.277389,"lat":-20.990803},{"nome":"Guaraçaí","uf":"SP","lon":-51.211854,"lat":-21.029173},{"nome":"Mirandópolis","uf":"SP","lon":-51.103500,"lat":-21.131345},{"nome":"Lavínia","uf":"SP","lon":-51.041172,"lat":-21.163913},{"nome":"Valparaíso","uf":"SP","lon":-50.869874,"lat":-21.222929},{"nome":"Bastos","uf":"SP","lon":-50.735695,"lat":-21.920984},{"nome":"Parapuã","uf":"SP","lon":-50.794882,"lat":-21.779205},{"nome":"Iacri","uf":"SP","lon":-50.693152,"lat":-21.857199},{"nome":"Rinópolis","uf":"SP","lon":-50.723908,"lat":-21.728402},{"nome":"Piacatu","uf":"SP","lon":-50.600343,"lat":-21.592142},{"nome":"Tupã","uf":"SP","lon":-50.519113,"lat":-21.933528},{"nome":"Arco-Íris","uf":"SP","lon":-50.466018,"lat":-21.772797},{"nome":"Herculândia","uf":"SP","lon":-50.390734,"lat":-22.003802},{"nome":"Santópolis do Aguapeí","uf":"SP","lon":-50.504372,"lat":-21.637574},{"nome":"Gabriel Monteiro","uf":"SP","lon":-50.557321,"lat":-21.529410},{"nome":"Clementina","uf":"SP","lon":-50.452476,"lat":-21.560447},{"nome":"Bento de Abreu","uf":"SP","lon":-50.813959,"lat":-21.268629},{"nome":"Rubiácea","uf":"SP","lon":-50.729564,"lat":-21.300568},{"nome":"Guararapes","uf":"SP","lon":-50.645338,"lat":-21.254431},{"nome":"Bilac","uf":"SP","lon":-50.474640,"lat":-21.403962},{"nome":"Birigui","uf":"SP","lon":-50.343162,"lat":-21.291034},{"nome":"Araçatuba","uf":"SP","lon":-50.440106,"lat":-21.207648},{"nome":"Chapadão do Sul","uf":"MS","lon":-52.626337,"lat":-18.788035},{"nome":"Três Lagoas","uf":"MS","lon":-51.700731,"lat":-20.784853},{"nome":"Castilho","uf":"SP","lon":-51.488394,"lat":-20.868924},{"nome":"Itapura","uf":"SP","lon":-51.506322,"lat":-20.641911},{"nome":"Selvíria","uf":"MS","lon":-51.419246,"lat":-20.363733},{"nome":"Inocência","uf":"MS","lon":-51.928098,"lat":-19.727716},{"nome":"Aporé","uf":"GO","lon":-51.923184,"lat":-18.960729},{"nome":"Cassilândia","uf":"MS","lon":-51.731309,"lat":-19.117867},{"nome":"Itajá","uf":"GO","lon":-51.549514,"lat":-19.067338},{"nome":"Arenápolis","uf":"MT","lon":-56.843724,"lat":-14.447159},{"nome":"Nortelândia","uf":"MT","lon":-56.794516,"lat":-14.454022},{"nome":"São José do Rio Claro","uf":"MT","lon":-56.721841,"lat":-13.439818},{"nome":"Nova Maringá","uf":"MT","lon":-57.090769,"lat":-13.013614},{"nome":"Nossa Senhora do Livramento","uf":"MT","lon":-56.343242,"lat":-15.772024},{"nome":"Jaciara","uf":"MT","lon":-54.973320,"lat":-15.954778},{"nome":"Dom Aquino","uf":"MT","lon":-54.922298,"lat":-15.809899},{"nome":"Ourinhos","uf":"SP","lon":-49.869702,"lat":-22.979695},{"nome":"Campos Novos Paulista","uf":"SP","lon":-49.998726,"lat":-22.601952},{"nome":"Ribeirão do Sul","uf":"SP","lon":-49.933037,"lat":-22.789013},{"nome":"Echaporã","uf":"SP","lon":-50.203787,"lat":-22.432560},{"nome":"Oscar Bressane","uf":"SP","lon":-50.281118,"lat":-22.314874},{"nome":"Quintana","uf":"SP","lon":-50.307028,"lat":-22.069172},{"nome":"Oriente","uf":"SP","lon":-50.097105,"lat":-22.154939},{"nome":"Pompéia","uf":"SP","lon":-50.175964,"lat":-22.107040},{"nome":"Ocauçu","uf":"SP","lon":-49.922005,"lat":-22.437979},{"nome":"Lupércio","uf":"SP","lon":-49.818019,"lat":-22.414590},{"nome":"Marília","uf":"SP","lon":-49.950060,"lat":-22.217108},{"nome":"Vera Cruz","uf":"SP","lon":-49.820735,"lat":-22.218308},{"nome":"Canitar","uf":"SP","lon":-49.783947,"lat":-23.004014},{"nome":"Chavantes","uf":"SP","lon":-49.709616,"lat":-23.036632},{"nome":"Ipaussu","uf":"SP","lon":-49.627911,"lat":-23.057530},{"nome":"Santa Cruz do Rio Pardo","uf":"SP","lon":-49.635444,"lat":-22.898750},{"nome":"São Pedro do Turvo","uf":"SP","lon":-49.742829,"lat":-22.745286},{"nome":"Bernardino de Campos","uf":"SP","lon":-49.467897,"lat":-23.016439},{"nome":"Carmo de Minas","uf":"MG","lon":-45.130690,"lat":-22.120366},